{
"type": "FeatureCollection",
"name": "bus_stop",
"crs": { "type": "name", "properties": { "name": "urn:ogc:def:crs:OGC:1.3:CRS84" } },
"features": [
{ "type": "Feature", "properties": { "Name": "Praterstern", "description": null, "altitudeMode": "clampToGround", "code": "5621", "fclass": "bus_stop", "osm_id": "27399707", "Field_1": "Praterstern" }, "geometry": { "type": "Point", "coordinates": [ 16.39240250000006, 48.216918600000099 ] } },
{ "type": "Feature", "properties": { "Name": "Rennweg", "description": null, "altitudeMode": "clampToGround", "code": "5621", "fclass": "bus_stop", "osm_id": "29646679", "Field_1": "Rennweg" }, "geometry": { "type": "Point", "coordinates": [ 16.386547700000051, 48.195073200000017 ] } },
{ "type": "Feature", "properties": { "Name": "Brückengasse", "description": null, "altitudeMode": "clampToGround", "code": "5621", "fclass": "bus_stop", "osm_id": "31259937", "Field_1": "Brückengasse" }, "geometry": { "type": "Point", "coordinates": [ 16.347903, 48.1914835 ] } },
{ "type": "Feature", "properties": { "Name": "Stephansplatz", "description": null, "altitudeMode": "clampToGround", "code": "5621", "fclass": "bus_stop", "osm_id": "32665897", "Field_1": "Stephansplatz" }, "geometry": { "type": "Point", "coordinates": [ 16.37266840000007, 48.209250300000122 ] } },
{ "type": "Feature", "properties": { "Name": "Karlsplatz", "description": null, "altitudeMode": "clampToGround", "code": "5621", "fclass": "bus_stop", "osm_id": "34795831", "Field_1": "Karlsplatz" }, "geometry": { "type": "Point", "coordinates": [ 16.367356, 48.200389400000063 ] } },
{ "type": "Feature", "properties": { "Name": "Huglgasse", "description": null, "altitudeMode": "clampToGround", "code": "5621", "fclass": "bus_stop", "osm_id": "46823866", "Field_1": "Huglgasse" }, "geometry": { "type": "Point", "coordinates": [ 16.32518760000011, 48.197916600000099 ] } },
{ "type": "Feature", "properties": { "Name": "Ziegelofengasse", "description": null, "altitudeMode": "clampToGround", "code": "5621", "fclass": "bus_stop", "osm_id": "47046724", "Field_1": "Ziegelofengasse" }, "geometry": { "type": "Point", "coordinates": [ 16.36021820000008, 48.191903500000137 ] } },
{ "type": "Feature", "properties": { "Name": "Ring, Volkstheater", "description": null, "altitudeMode": "clampToGround", "code": "5621", "fclass": "bus_stop", "osm_id": "60676388", "Field_1": "Ring, Volkstheater" }, "geometry": { "type": "Point", "coordinates": [ 16.359656500000138, 48.206755400000077 ] } },
{ "type": "Feature", "properties": { "Name": "Auerspergstraße", "description": null, "altitudeMode": "clampToGround", "code": "5621", "fclass": "bus_stop", "osm_id": "60676404", "Field_1": "Auerspergstraße" }, "geometry": { "type": "Point", "coordinates": [ 16.3553581000001, 48.206806900000117 ] } },
{ "type": "Feature", "properties": { "Name": "Oberzellergasse", "description": null, "altitudeMode": "clampToGround", "code": "5621", "fclass": "bus_stop", "osm_id": "62638506", "Field_1": "Oberzellergasse" }, "geometry": { "type": "Point", "coordinates": [ 16.395234, 48.191761799999938 ] } },
{ "type": "Feature", "properties": { "Name": "Spitalgasse", "description": null, "altitudeMode": "clampToGround", "code": "5621", "fclass": "bus_stop", "osm_id": "66271182", "Field_1": "Spitalgasse" }, "geometry": { "type": "Point", "coordinates": [ 16.353415400000131, 48.222098600000038 ] } },
{ "type": "Feature", "properties": { "Name": "Palffygasse", "description": null, "altitudeMode": "clampToGround", "code": "5621", "fclass": "bus_stop", "osm_id": "68169454", "Field_1": "Palffygasse" }, "geometry": { "type": "Point", "coordinates": [ 16.336613500000109, 48.217584900000134 ] } },
{ "type": "Feature", "properties": { "Name": "Kurzbauergasse", "description": null, "altitudeMode": "clampToGround", "code": "5621", "fclass": "bus_stop", "osm_id": "78476370", "Field_1": "Kurzbauergasse" }, "geometry": { "type": "Point", "coordinates": [ 16.3965254, 48.212197800000133 ] } },
{ "type": "Feature", "properties": { "Name": "Unteres Belvedere", "description": null, "altitudeMode": "clampToGround", "code": "5621", "fclass": "bus_stop", "osm_id": "115117812", "Field_1": "Unteres Belvedere" }, "geometry": { "type": "Point", "coordinates": [ 16.38147240000006, 48.196569 ] } },
{ "type": "Feature", "properties": { "Name": "Karlsplatz", "description": null, "altitudeMode": "clampToGround", "code": "5621", "fclass": "bus_stop", "osm_id": "119403514", "Field_1": "Karlsplatz" }, "geometry": { "type": "Point", "coordinates": [ 16.369503500000061, 48.200613100000112 ] } },
{ "type": "Feature", "properties": { "Name": "Karlsplatz", "description": null, "altitudeMode": "clampToGround", "code": "5621", "fclass": "bus_stop", "osm_id": "119403523", "Field_1": "Karlsplatz" }, "geometry": { "type": "Point", "coordinates": [ 16.369658100000041, 48.200344600000108 ] } },
{ "type": "Feature", "properties": { "Name": "Neubaugasse", "description": null, "altitudeMode": "clampToGround", "code": "5621", "fclass": "bus_stop", "osm_id": "204487915", "Field_1": "Neubaugasse" }, "geometry": { "type": "Point", "coordinates": [ 16.350796399999979, 48.1981192 ] } },
{ "type": "Feature", "properties": { "Name": "Elterleinplatz", "description": null, "altitudeMode": "clampToGround", "code": "5621", "fclass": "bus_stop", "osm_id": "217826075", "Field_1": "Elterleinplatz" }, "geometry": { "type": "Point", "coordinates": [ 16.332803599999981, 48.218080799999939 ] } },
{ "type": "Feature", "properties": { "Name": "Alser Straße", "description": null, "altitudeMode": "clampToGround", "code": "5621", "fclass": "bus_stop", "osm_id": "218186716", "Field_1": "Alser Straße" }, "geometry": { "type": "Point", "coordinates": [ 16.34203350000001, 48.217171 ] } },
{ "type": "Feature", "properties": { "Name": "Landesgerichtsstraße", "description": null, "altitudeMode": "clampToGround", "code": "5621", "fclass": "bus_stop", "osm_id": "218263990", "Field_1": "Landesgerichtsstraße" }, "geometry": { "type": "Point", "coordinates": [ 16.356991, 48.214478299999939 ] } },
{ "type": "Feature", "properties": { "Name": "Spitalgasse", "description": null, "altitudeMode": "clampToGround", "code": "5621", "fclass": "bus_stop", "osm_id": "251207321", "Field_1": "Spitalgasse" }, "geometry": { "type": "Point", "coordinates": [ 16.35301080000005, 48.222427800000112 ] } },
{ "type": "Feature", "properties": { "Name": "Währinger Straße-Volksoper", "description": null, "altitudeMode": "clampToGround", "code": "5621", "fclass": "bus_stop", "osm_id": "251207326", "Field_1": "Währinger Straße-Volksoper" }, "geometry": { "type": "Point", "coordinates": [ 16.349338100000072, 48.22485110000008 ] } },
{ "type": "Feature", "properties": { "Name": "Strozzigasse", "description": null, "altitudeMode": "clampToGround", "code": "5621", "fclass": "bus_stop", "osm_id": "257612767", "Field_1": "Strozzigasse" }, "geometry": { "type": "Point", "coordinates": [ 16.349331, 48.206649900000059 ] } },
{ "type": "Feature", "properties": { "Name": "Neubaugasse\/Burggasse", "description": null, "altitudeMode": "clampToGround", "code": "5621", "fclass": "bus_stop", "osm_id": "257613028", "Field_1": "Neubaugasse\/Burggasse" }, "geometry": { "type": "Point", "coordinates": [ 16.3489666000001, 48.204061 ] } },
{ "type": "Feature", "properties": { "Name": "Neubaugasse\/Westbahnstraße", "description": null, "altitudeMode": "clampToGround", "code": "5621", "fclass": "bus_stop", "osm_id": "257613056", "Field_1": "Neubaugasse\/Westbahnstraße" }, "geometry": { "type": "Point", "coordinates": [ 16.349071600000059, 48.202276400000073 ] } },
{ "type": "Feature", "properties": { "Name": "Haus des Meeres", "description": null, "altitudeMode": "clampToGround", "code": "5621", "fclass": "bus_stop", "osm_id": "257613199", "Field_1": "Haus des Meeres" }, "geometry": { "type": "Point", "coordinates": [ 16.354064700000041, 48.197309799999971 ] } },
{ "type": "Feature", "properties": { "Name": "Schwarzspanierstraße", "description": null, "altitudeMode": "clampToGround", "code": "5621", "fclass": "bus_stop", "osm_id": "264656099", "Field_1": "Schwarzspanierstraße" }, "geometry": { "type": "Point", "coordinates": [ 16.35889450000013, 48.217491300000063 ] } },
{ "type": "Feature", "properties": { "Name": "Siebensterngasse", "description": null, "altitudeMode": "clampToGround", "code": "5621", "fclass": "bus_stop", "osm_id": "276170228", "Field_1": "Siebensterngasse" }, "geometry": { "type": "Point", "coordinates": [ 16.351678699999979, 48.202434700000033 ] } },
{ "type": "Feature", "properties": { "Name": "Siebensterngasse", "description": null, "altitudeMode": "clampToGround", "code": "5621", "fclass": "bus_stop", "osm_id": "276170607", "Field_1": "Siebensterngasse" }, "geometry": { "type": "Point", "coordinates": [ 16.351486800000089, 48.202238100000102 ] } },
{ "type": "Feature", "properties": { "Name": "Stiftgasse", "description": null, "altitudeMode": "clampToGround", "code": "5621", "fclass": "bus_stop", "osm_id": "276171084", "Field_1": "Stiftgasse" }, "geometry": { "type": "Point", "coordinates": [ 16.354282400000098, 48.202358500000123 ] } },
{ "type": "Feature", "properties": { "Name": "Volkstheater", "description": null, "altitudeMode": "clampToGround", "code": "5621", "fclass": "bus_stop", "osm_id": "276171350", "Field_1": "Volkstheater" }, "geometry": { "type": "Point", "coordinates": [ 16.357513, 48.20494020000001 ] } },
{ "type": "Feature", "properties": { "Name": "Zieglergasse\/Westbahnstraße", "description": null, "altitudeMode": "clampToGround", "code": "5621", "fclass": "bus_stop", "osm_id": "276171818", "Field_1": "Zieglergasse\/Westbahnstraße" }, "geometry": { "type": "Point", "coordinates": [ 16.345239400000079, 48.20182640000013 ] } },
{ "type": "Feature", "properties": { "Name": "Concordiaplatz", "description": null, "altitudeMode": "clampToGround", "code": "5621", "fclass": "bus_stop", "osm_id": "282997742", "Field_1": "Concordiaplatz" }, "geometry": { "type": "Point", "coordinates": [ 16.37024150000002, 48.213586300000031 ] } },
{ "type": "Feature", "properties": { "Name": "Habsburgergasse", "description": null, "altitudeMode": "clampToGround", "code": "5621", "fclass": "bus_stop", "osm_id": "289464496", "Field_1": "Habsburgergasse" }, "geometry": { "type": "Point", "coordinates": [ 16.367863899999922, 48.207689 ] } },
{ "type": "Feature", "properties": { "Name": "Ziegelofengasse", "description": null, "altitudeMode": "clampToGround", "code": "5621", "fclass": "bus_stop", "osm_id": "290917690", "Field_1": "Ziegelofengasse" }, "geometry": { "type": "Point", "coordinates": [ 16.360735700000081, 48.19246360000011 ] } },
{ "type": "Feature", "properties": { "Name": "Obere Augartenstraße", "description": null, "altitudeMode": "clampToGround", "code": "5621", "fclass": "bus_stop", "osm_id": "293274839", "Field_1": "Obere Augartenstraße" }, "geometry": { "type": "Point", "coordinates": [ 16.37590640000013, 48.222575800000072 ] } },
{ "type": "Feature", "properties": { "Name": "Laudongasse", "description": null, "altitudeMode": "clampToGround", "code": "5621", "fclass": "bus_stop", "osm_id": "299362629", "Field_1": "Laudongasse" }, "geometry": { "type": "Point", "coordinates": [ 16.3495299, 48.213089200000127 ] } },
{ "type": "Feature", "properties": { "Name": "Schwarzenbergplatz", "description": null, "altitudeMode": "clampToGround", "code": "5621", "fclass": "bus_stop", "osm_id": "314418505", "Field_1": "Schwarzenbergplatz" }, "geometry": { "type": "Point", "coordinates": [ 16.375002699999978, 48.201839399999983 ] } },
{ "type": "Feature", "properties": { "Name": "Währinger Straße-Volksoper", "description": null, "altitudeMode": "clampToGround", "code": "5621", "fclass": "bus_stop", "osm_id": "314697894", "Field_1": "Währinger Straße-Volksoper" }, "geometry": { "type": "Point", "coordinates": [ 16.349213900000109, 48.225437600000078 ] } },
{ "type": "Feature", "properties": { "Name": "Esterházygasse", "description": null, "altitudeMode": "clampToGround", "code": "5621", "fclass": "bus_stop", "osm_id": "319510638", "Field_1": "Esterházygasse" }, "geometry": { "type": "Point", "coordinates": [ 16.351040500000071, 48.195262700000058 ] } },
{ "type": "Feature", "properties": { "Name": "Magdalenenstraße", "description": null, "altitudeMode": "clampToGround", "code": "5621", "fclass": "bus_stop", "osm_id": "319510639", "Field_1": "Magdalenenstraße" }, "geometry": { "type": "Point", "coordinates": [ 16.35283870000001, 48.194791099999982 ] } },
{ "type": "Feature", "properties": { "Name": "Alser Straße, Skodagasse", "description": null, "altitudeMode": "clampToGround", "code": "5621", "fclass": "bus_stop", "osm_id": "319510641", "Field_1": "Alser Straße, Skodagasse" }, "geometry": { "type": "Point", "coordinates": [ 16.348623799999981, 48.214852 ] } },
{ "type": "Feature", "properties": { "Name": "Laudongasse", "description": null, "altitudeMode": "clampToGround", "code": "5621", "fclass": "bus_stop", "osm_id": "327740797", "Field_1": "Laudongasse" }, "geometry": { "type": "Point", "coordinates": [ 16.348426700000012, 48.2134155 ] } },
{ "type": "Feature", "properties": { "Name": "Lederergasse\/Josefstädter Straße", "description": null, "altitudeMode": "clampToGround", "code": "5621", "fclass": "bus_stop", "osm_id": "327740807", "Field_1": "Lederergasse\/Josefstädter Straße" }, "geometry": { "type": "Point", "coordinates": [ 16.3488471, 48.209781900000053 ] } },
{ "type": "Feature", "properties": { "Name": "Kellermanngasse", "description": null, "altitudeMode": "clampToGround", "code": "5621", "fclass": "bus_stop", "osm_id": "327741278", "Field_1": "Kellermanngasse" }, "geometry": { "type": "Point", "coordinates": [ 16.35152840000012, 48.205383800000106 ] } },
{ "type": "Feature", "properties": { "Name": "Piaristengasse", "description": null, "altitudeMode": "clampToGround", "code": "5621", "fclass": "bus_stop", "osm_id": "327741284", "Field_1": "Piaristengasse" }, "geometry": { "type": "Point", "coordinates": [ 16.35131240000004, 48.206523700000112 ] } },
{ "type": "Feature", "properties": { "Name": "Theater in der Josefstadt", "description": null, "altitudeMode": "clampToGround", "code": "5621", "fclass": "bus_stop", "osm_id": "327741291", "Field_1": "Theater in der Josefstadt" }, "geometry": { "type": "Point", "coordinates": [ 16.3505159, 48.209668300000089 ] } },
{ "type": "Feature", "properties": { "Name": "Teinfaltstraße", "description": null, "altitudeMode": "clampToGround", "code": "5621", "fclass": "bus_stop", "osm_id": "339438551", "Field_1": "Teinfaltstraße" }, "geometry": { "type": "Point", "coordinates": [ 16.364830600000118, 48.211774600000069 ] } },
{ "type": "Feature", "properties": { "Name": "Oper, Karlsplatz", "description": null, "altitudeMode": "clampToGround", "code": "5621", "fclass": "bus_stop", "osm_id": "347982832", "Field_1": "Oper, Karlsplatz" }, "geometry": { "type": "Point", "coordinates": [ 16.36856490000002, 48.202423200000112 ] } },
{ "type": "Feature", "properties": { "Name": "Museumsquartier", "description": null, "altitudeMode": "clampToGround", "code": "5621", "fclass": "bus_stop", "osm_id": "347982835", "Field_1": "Museumsquartier" }, "geometry": { "type": "Point", "coordinates": [ 16.36160510000008, 48.202392 ] } },
{ "type": "Feature", "properties": { "Name": "Westbahnhof", "description": null, "altitudeMode": "clampToGround", "code": "5621", "fclass": "bus_stop", "osm_id": "347982837", "Field_1": "Westbahnhof" }, "geometry": { "type": "Point", "coordinates": [ 16.339625400000099, 48.196785799999986 ] } },
{ "type": "Feature", "properties": { "Name": "Berggasse", "description": null, "altitudeMode": "clampToGround", "code": "5621", "fclass": "bus_stop", "osm_id": "413699458", "Field_1": "Berggasse" }, "geometry": { "type": "Point", "coordinates": [ 16.361607400000079, 48.218169400000022 ] } },
{ "type": "Feature", "properties": { "Name": "Oper, Karlsplatz", "description": null, "altitudeMode": "clampToGround", "code": "5621", "fclass": "bus_stop", "osm_id": "415592441", "Field_1": "Oper, Karlsplatz" }, "geometry": { "type": "Point", "coordinates": [ 16.36935290000002, 48.202604600000029 ] } },
{ "type": "Feature", "properties": { "Name": "Hirschengasse", "description": null, "altitudeMode": "clampToGround", "code": "5621", "fclass": "bus_stop", "osm_id": "419312660", "Field_1": "Hirschengasse" }, "geometry": { "type": "Point", "coordinates": [ 16.349224799999948, 48.193172800000013 ] } },
{ "type": "Feature", "properties": { "Name": "Westbahnhof", "description": null, "altitudeMode": "clampToGround", "code": "5621", "fclass": "bus_stop", "osm_id": "441284807", "Field_1": "Westbahnhof" }, "geometry": { "type": "Point", "coordinates": [ 16.338228399999931, 48.196901200000127 ] } },
{ "type": "Feature", "properties": { "Name": "Praterstern", "description": null, "altitudeMode": "clampToGround", "code": "5621", "fclass": "bus_stop", "osm_id": "452940802", "Field_1": "Praterstern" }, "geometry": { "type": "Point", "coordinates": [ 16.391517700000069, 48.218164399999978 ] } },
{ "type": "Feature", "properties": { "Name": "Schweglerstraße", "description": null, "altitudeMode": "clampToGround", "code": "5621", "fclass": "bus_stop", "osm_id": "469756025", "Field_1": "Schweglerstraße" }, "geometry": { "type": "Point", "coordinates": [ 16.32759470000013, 48.198108499999989 ] } },
{ "type": "Feature", "properties": { "Name": "Urban-Loritz-Platz", "description": null, "altitudeMode": "clampToGround", "code": "5621", "fclass": "bus_stop", "osm_id": "470227831", "Field_1": "Urban-Loritz-Platz" }, "geometry": { "type": "Point", "coordinates": [ 16.3378895, 48.201425099999938 ] } },
{ "type": "Feature", "properties": { "Name": "Albertinaplatz", "description": null, "altitudeMode": "clampToGround", "code": "5621", "fclass": "bus_stop", "osm_id": "559267385", "Field_1": "Albertinaplatz" }, "geometry": { "type": "Point", "coordinates": [ 16.368403900000029, 48.205162600000108 ] } },
{ "type": "Feature", "properties": { "Name": "Albertinaplatz", "description": null, "altitudeMode": "clampToGround", "code": "5621", "fclass": "bus_stop", "osm_id": "559267390", "Field_1": "Albertinaplatz" }, "geometry": { "type": "Point", "coordinates": [ 16.369380800000041, 48.2047576 ] } },
{ "type": "Feature", "properties": { "Name": "Oper, Karlsplatz", "description": null, "altitudeMode": "clampToGround", "code": "5621", "fclass": "bus_stop", "osm_id": "559267400", "Field_1": "Oper, Karlsplatz" }, "geometry": { "type": "Point", "coordinates": [ 16.370230100000128, 48.202410699999973 ] } },
{ "type": "Feature", "properties": { "Name": "Schwarzenbergplatz", "description": null, "altitudeMode": "clampToGround", "code": "5621", "fclass": "bus_stop", "osm_id": "559267402", "Field_1": "Schwarzenbergplatz" }, "geometry": { "type": "Point", "coordinates": [ 16.374077599999961, 48.201928400000043 ] } },
{ "type": "Feature", "properties": { "Name": "Michaelerplatz", "description": null, "altitudeMode": "clampToGround", "code": "5621", "fclass": "bus_stop", "osm_id": "559267405", "Field_1": "Michaelerplatz" }, "geometry": { "type": "Point", "coordinates": [ 16.366461300000029, 48.208370000000123 ] } },
{ "type": "Feature", "properties": { "Name": "Herrengasse", "description": null, "altitudeMode": "clampToGround", "code": "5621", "fclass": "bus_stop", "osm_id": "559267412", "Field_1": "Herrengasse" }, "geometry": { "type": "Point", "coordinates": [ 16.3656979, 48.210489100000132 ] } },
{ "type": "Feature", "properties": { "Name": "Graben\/Petersplatz", "description": null, "altitudeMode": "clampToGround", "code": "5621", "fclass": "bus_stop", "osm_id": "559267414", "Field_1": "Graben\/Petersplatz" }, "geometry": { "type": "Point", "coordinates": [ 16.369495100000051, 48.209123600000112 ] } },
{ "type": "Feature", "properties": { "Name": "Renngasse", "description": null, "altitudeMode": "clampToGround", "code": "5621", "fclass": "bus_stop", "osm_id": "559267418", "Field_1": "Renngasse" }, "geometry": { "type": "Point", "coordinates": [ 16.367824400000021, 48.213075100000033 ] } },
{ "type": "Feature", "properties": { "Name": "Börse", "description": null, "altitudeMode": "clampToGround", "code": "5621", "fclass": "bus_stop", "osm_id": "559267427", "Field_1": "Börse" }, "geometry": { "type": "Point", "coordinates": [ 16.3657288, 48.214973300000047 ] } },
{ "type": "Feature", "properties": { "Name": "Brandstätte", "description": null, "altitudeMode": "clampToGround", "code": "5621", "fclass": "bus_stop", "osm_id": "559267430", "Field_1": "Brandstätte" }, "geometry": { "type": "Point", "coordinates": [ 16.3708211, 48.210098500000129 ] } },
{ "type": "Feature", "properties": { "Name": "Hoher Markt", "description": null, "altitudeMode": "clampToGround", "code": "5621", "fclass": "bus_stop", "osm_id": "559267439", "Field_1": "Hoher Markt" }, "geometry": { "type": "Point", "coordinates": [ 16.372254399999921, 48.211125199999969 ] } },
{ "type": "Feature", "properties": { "Name": "Hoher Markt", "description": null, "altitudeMode": "clampToGround", "code": "5621", "fclass": "bus_stop", "osm_id": "559267442", "Field_1": "Hoher Markt" }, "geometry": { "type": "Point", "coordinates": [ 16.371915000000119, 48.211177100000043 ] } },
{ "type": "Feature", "properties": { "Name": "Salzgries", "description": null, "altitudeMode": "clampToGround", "code": "5621", "fclass": "bus_stop", "osm_id": "559267446", "Field_1": "Salzgries" }, "geometry": { "type": "Point", "coordinates": [ 16.37273690000006, 48.212754800000027 ] } },
{ "type": "Feature", "properties": { "Name": "Rudolfsplatz", "description": null, "altitudeMode": "clampToGround", "code": "5621", "fclass": "bus_stop", "osm_id": "559267449", "Field_1": "Rudolfsplatz" }, "geometry": { "type": "Point", "coordinates": [ 16.371120100000041, 48.214421300000033 ] } },
{ "type": "Feature", "properties": { "Name": "Schottenring", "description": null, "altitudeMode": "clampToGround", "code": "5621", "fclass": "bus_stop", "osm_id": "559267452", "Field_1": "Schottenring" }, "geometry": { "type": "Point", "coordinates": [ 16.370452700000101, 48.216691 ] } },
{ "type": "Feature", "properties": { "Name": "Rotenturmstraße", "description": null, "altitudeMode": "clampToGround", "code": "5621", "fclass": "bus_stop", "osm_id": "559297836", "Field_1": "Rotenturmstraße" }, "geometry": { "type": "Point", "coordinates": [ 16.37431470000007, 48.210244100000132 ] } },
{ "type": "Feature", "properties": { "Name": "Schwedenplatz", "description": null, "altitudeMode": "clampToGround", "code": "5621", "fclass": "bus_stop", "osm_id": "559297838", "Field_1": "Schwedenplatz" }, "geometry": { "type": "Point", "coordinates": [ 16.3760225, 48.211624300000103 ] } },
{ "type": "Feature", "properties": { "Name": "Kirchengasse", "description": null, "altitudeMode": "clampToGround", "code": "5621", "fclass": "bus_stop", "osm_id": "559547159", "Field_1": "Kirchengasse" }, "geometry": { "type": "Point", "coordinates": [ 16.352825699999979, 48.199687200000028 ] } },
{ "type": "Feature", "properties": { "Name": "Riemergasse", "description": null, "altitudeMode": "clampToGround", "code": "5621", "fclass": "bus_stop", "osm_id": "559782465", "Field_1": "Riemergasse" }, "geometry": { "type": "Point", "coordinates": [ 16.37740070000012, 48.2075056 ] } },
{ "type": "Feature", "properties": { "Name": "Stubentor", "description": null, "altitudeMode": "clampToGround", "code": "5621", "fclass": "bus_stop", "osm_id": "559782470", "Field_1": "Stubentor" }, "geometry": { "type": "Point", "coordinates": [ 16.379860400000101, 48.207317100000012 ] } },
{ "type": "Feature", "properties": { "Name": "Schottentor", "description": null, "altitudeMode": "clampToGround", "code": "5621", "fclass": "bus_stop", "osm_id": "559782498", "Field_1": "Schottentor" }, "geometry": { "type": "Point", "coordinates": [ 16.3627441, 48.213480700000048 ] } },
{ "type": "Feature", "properties": { "Name": "Helferstorferstraße", "description": null, "altitudeMode": "clampToGround", "code": "5621", "fclass": "bus_stop", "osm_id": "559782499", "Field_1": "Helferstorferstraße" }, "geometry": { "type": "Point", "coordinates": [ 16.365543399999979, 48.213923600000101 ] } },
{ "type": "Feature", "properties": { "Name": "Stephansplatz", "description": null, "altitudeMode": "clampToGround", "code": "5621", "fclass": "bus_stop", "osm_id": "559782504", "Field_1": "Stephansplatz" }, "geometry": { "type": "Point", "coordinates": [ 16.373056, 48.209037100000053 ] } },
{ "type": "Feature", "properties": { "Name": "Lisztstraße", "description": null, "altitudeMode": "clampToGround", "code": "5621", "fclass": "bus_stop", "osm_id": "597438937", "Field_1": "Lisztstraße" }, "geometry": { "type": "Point", "coordinates": [ 16.378575800000021, 48.199112400000097 ] } },
{ "type": "Feature", "properties": { "Name": "Akademietheater", "description": null, "altitudeMode": "clampToGround", "code": "5621", "fclass": "bus_stop", "osm_id": "597438938", "Field_1": "Akademietheater" }, "geometry": { "type": "Point", "coordinates": [ 16.376751, 48.200246399999969 ] } },
{ "type": "Feature", "properties": { "Name": "Am Modenapark", "description": null, "altitudeMode": "clampToGround", "code": "5621", "fclass": "bus_stop", "osm_id": "597438939", "Field_1": "Am Modenapark" }, "geometry": { "type": "Point", "coordinates": [ 16.382649800000141, 48.199102399999958 ] } },
{ "type": "Feature", "properties": { "Name": "Ungargasse\/Neulinggasse", "description": null, "altitudeMode": "clampToGround", "code": "5621", "fclass": "bus_stop", "osm_id": "597438940", "Field_1": "Ungargasse\/Neulinggasse" }, "geometry": { "type": "Point", "coordinates": [ 16.387056600000051, 48.1990616 ] } },
{ "type": "Feature", "properties": { "Name": "Rochusgasse", "description": null, "altitudeMode": "clampToGround", "code": "5621", "fclass": "bus_stop", "osm_id": "597438941", "Field_1": "Rochusgasse" }, "geometry": { "type": "Point", "coordinates": [ 16.390712400000041, 48.202766200000099 ] } },
{ "type": "Feature", "properties": { "Name": "Ziehrerplatz", "description": null, "altitudeMode": "clampToGround", "code": "5621", "fclass": "bus_stop", "osm_id": "597438942", "Field_1": "Ziehrerplatz" }, "geometry": { "type": "Point", "coordinates": [ 16.39178470000013, 48.199200700000119 ] } },
{ "type": "Feature", "properties": { "Name": "Hintzerstraße", "description": null, "altitudeMode": "clampToGround", "code": "5621", "fclass": "bus_stop", "osm_id": "597438943", "Field_1": "Hintzerstraße" }, "geometry": { "type": "Point", "coordinates": [ 16.393195100000071, 48.200271200000032 ] } },
{ "type": "Feature", "properties": { "Name": "Rasumofskygasse", "description": null, "altitudeMode": "clampToGround", "code": "5621", "fclass": "bus_stop", "osm_id": "597438944", "Field_1": "Rasumofskygasse" }, "geometry": { "type": "Point", "coordinates": [ 16.3939516, 48.205552400000052 ] } },
{ "type": "Feature", "properties": { "Name": "Wittelsbachstraße", "description": null, "altitudeMode": "clampToGround", "code": "5621", "fclass": "bus_stop", "osm_id": "597438946", "Field_1": "Wittelsbachstraße" }, "geometry": { "type": "Point", "coordinates": [ 16.398901300000091, 48.206351800000107 ] } },
{ "type": "Feature", "properties": { "Name": "Schwertgasse", "description": null, "altitudeMode": "clampToGround", "code": "5621", "fclass": "bus_stop", "osm_id": "598192218", "Field_1": "Schwertgasse" }, "geometry": { "type": "Point", "coordinates": [ 16.369615600000088, 48.212305200000117 ] } },
{ "type": "Feature", "properties": { "Name": "Schottenring", "description": null, "altitudeMode": "clampToGround", "code": "5621", "fclass": "bus_stop", "osm_id": "598192242", "Field_1": "Schottenring" }, "geometry": { "type": "Point", "coordinates": [ 16.369726700000061, 48.217276200000022 ] } },
{ "type": "Feature", "properties": { "Name": "Schottentor", "description": null, "altitudeMode": "clampToGround", "code": "5621", "fclass": "bus_stop", "osm_id": "716863731", "Field_1": "Schottentor" }, "geometry": { "type": "Point", "coordinates": [ 16.362004900000102, 48.2143929 ] } },
{ "type": "Feature", "properties": { "Name": "Weyrgasse", "description": null, "altitudeMode": "clampToGround", "code": "5621", "fclass": "bus_stop", "osm_id": "844546851", "Field_1": "Weyrgasse" }, "geometry": { "type": "Point", "coordinates": [ 16.38859960000002, 48.204277300000058 ] } },
{ "type": "Feature", "properties": { "Name": "Johannesgasse", "description": null, "altitudeMode": "clampToGround", "code": "5621", "fclass": "bus_stop", "osm_id": "913963128", "Field_1": "Johannesgasse" }, "geometry": { "type": "Point", "coordinates": [ 16.37990800000011, 48.201558799999987 ] } },
{ "type": "Feature", "properties": { "Name": "Rennweg", "description": null, "altitudeMode": "clampToGround", "code": "5621", "fclass": "bus_stop", "osm_id": "1086311922", "Field_1": "Rennweg" }, "geometry": { "type": "Point", "coordinates": [ 16.386830099999941, 48.194432899999981 ] } },
{ "type": "Feature", "properties": { "Name": "Rueppgasse", "description": null, "altitudeMode": "clampToGround", "code": "5621", "fclass": "bus_stop", "osm_id": "1184686115", "Field_1": "Rueppgasse" }, "geometry": { "type": "Point", "coordinates": [ 16.38568730000009, 48.220556399999957 ] } },
{ "type": "Feature", "properties": { "Name": "Burggasse-Stadthalle", "description": null, "altitudeMode": "clampToGround", "code": "5621", "fclass": "bus_stop", "osm_id": "1328954719", "Field_1": "Burggasse-Stadthalle" }, "geometry": { "type": "Point", "coordinates": [ 16.337197200000109, 48.204202500000072 ] } },
{ "type": "Feature", "properties": { "Name": "Thaliastraße, Koppstraße", "description": null, "altitudeMode": "clampToGround", "code": "5621", "fclass": "bus_stop", "osm_id": "1328954720", "Field_1": "Thaliastraße, Koppstraße" }, "geometry": { "type": "Point", "coordinates": [ 16.33693270000003, 48.206173700000143 ] } },
{ "type": "Feature", "properties": { "Name": "Bezirksamt Margareten", "description": null, "altitudeMode": "clampToGround", "code": "5621", "fclass": "bus_stop", "osm_id": "1366393929", "Field_1": "Bezirksamt Margareten" }, "geometry": { "type": "Point", "coordinates": [ 16.353985500000022, 48.1911164 ] } },
{ "type": "Feature", "properties": { "Name": "Pilgramgasse", "description": null, "altitudeMode": "clampToGround", "code": "5621", "fclass": "bus_stop", "osm_id": "1366393930", "Field_1": "Pilgramgasse" }, "geometry": { "type": "Point", "coordinates": [ 16.35482810000013, 48.192603299999973 ] } },
{ "type": "Feature", "properties": { "Name": "Pilgramgasse", "description": null, "altitudeMode": "clampToGround", "code": "5621", "fclass": "bus_stop", "osm_id": "1366393931", "Field_1": "Pilgramgasse" }, "geometry": { "type": "Point", "coordinates": [ 16.3539912, 48.192733100000062 ] } },
{ "type": "Feature", "properties": { "Name": "Pilgramgasse", "description": null, "altitudeMode": "clampToGround", "code": "5621", "fclass": "bus_stop", "osm_id": "1366393932", "Field_1": "Pilgramgasse" }, "geometry": { "type": "Point", "coordinates": [ 16.35529820000011, 48.192689 ] } },
{ "type": "Feature", "properties": { "Name": "Pilgramgasse", "description": null, "altitudeMode": "clampToGround", "code": "5621", "fclass": "bus_stop", "osm_id": "1366393933", "Field_1": "Pilgramgasse" }, "geometry": { "type": "Point", "coordinates": [ 16.354542899999959, 48.192967200000062 ] } },
{ "type": "Feature", "properties": { "Name": "Grenzgasse", "description": null, "altitudeMode": "clampToGround", "code": "5621", "fclass": "bus_stop", "osm_id": "1367391293", "Field_1": "Grenzgasse" }, "geometry": { "type": "Point", "coordinates": [ 16.329740400000048, 48.193080900000041 ] } },
{ "type": "Feature", "properties": { "Name": "Grenzgasse", "description": null, "altitudeMode": "clampToGround", "code": "5621", "fclass": "bus_stop", "osm_id": "1367391295", "Field_1": "Grenzgasse" }, "geometry": { "type": "Point", "coordinates": [ 16.32963530000006, 48.193466000000107 ] } },
{ "type": "Feature", "properties": { "Name": "Johnstraße", "description": null, "altitudeMode": "clampToGround", "code": "5621", "fclass": "bus_stop", "osm_id": "1367391301", "Field_1": "Johnstraße" }, "geometry": { "type": "Point", "coordinates": [ 16.320245300000071, 48.198928299999977 ] } },
{ "type": "Feature", "properties": { "Name": "Margaretenplatz\/Schönbrunner Straße", "description": null, "altitudeMode": "clampToGround", "code": "5621", "fclass": "bus_stop", "osm_id": "1367391306", "Field_1": "Margaretenplatz\/Schönbrunner Straße" }, "geometry": { "type": "Point", "coordinates": [ 16.356708500000082, 48.191952100000087 ] } },
{ "type": "Feature", "properties": { "Name": "Schmelzbrücke", "description": null, "altitudeMode": "clampToGround", "code": "5621", "fclass": "bus_stop", "osm_id": "1367391405", "Field_1": "Schmelzbrücke" }, "geometry": { "type": "Point", "coordinates": [ 16.329592800000061, 48.1960883 ] } },
{ "type": "Feature", "properties": { "Name": "Schweglerstraße", "description": null, "altitudeMode": "clampToGround", "code": "5621", "fclass": "bus_stop", "osm_id": "1367391406", "Field_1": "Schweglerstraße" }, "geometry": { "type": "Point", "coordinates": [ 16.327769600000011, 48.196751100000142 ] } },
{ "type": "Feature", "properties": { "Name": "Neubaugasse", "description": null, "altitudeMode": "clampToGround", "code": "5621", "fclass": "bus_stop", "osm_id": "1369575535", "Field_1": "Neubaugasse" }, "geometry": { "type": "Point", "coordinates": [ 16.3499636, 48.198521 ] } },
{ "type": "Feature", "properties": { "Name": "Urban-Loritz-Platz", "description": null, "altitudeMode": "clampToGround", "code": "5621", "fclass": "bus_stop", "osm_id": "1606281568", "Field_1": "Urban-Loritz-Platz" }, "geometry": { "type": "Point", "coordinates": [ 16.336967, 48.200710900000047 ] } },
{ "type": "Feature", "properties": { "Name": "Franz-Josefs-Bahnhof", "description": null, "altitudeMode": "clampToGround", "code": "5621", "fclass": "bus_stop", "osm_id": "1617987696", "Field_1": "Franz-Josefs-Bahnhof" }, "geometry": { "type": "Point", "coordinates": [ 16.36105190000012, 48.2254881 ] } },
{ "type": "Feature", "properties": { "Name": "Karlsplatz", "description": null, "altitudeMode": "clampToGround", "code": "5621", "fclass": "bus_stop", "osm_id": "1682728160", "Field_1": "Karlsplatz" }, "geometry": { "type": "Point", "coordinates": [ 16.366042800000059, 48.200288700000101 ] } },
{ "type": "Feature", "properties": { "Name": "Praterstern", "description": null, "altitudeMode": "clampToGround", "code": "5621", "fclass": "bus_stop", "osm_id": "1709832104", "Field_1": "Praterstern" }, "geometry": { "type": "Point", "coordinates": [ 16.39232990000011, 48.219299400000068 ] } },
{ "type": "Feature", "properties": { "Name": "Erlafstraße", "description": null, "altitudeMode": "clampToGround", "code": "5621", "fclass": "bus_stop", "osm_id": "1710439250", "Field_1": "Erlafstraße" }, "geometry": { "type": "Point", "coordinates": [ 16.40234780000014, 48.220553800000118 ] } },
{ "type": "Feature", "properties": { "Name": "Harkortstraße", "description": null, "altitudeMode": "clampToGround", "code": "5621", "fclass": "bus_stop", "osm_id": "1710439256", "Field_1": "Harkortstraße" }, "geometry": { "type": "Point", "coordinates": [ 16.399017, 48.2222122 ] } },
{ "type": "Feature", "properties": { "Name": "Molkereistraße", "description": null, "altitudeMode": "clampToGround", "code": "5621", "fclass": "bus_stop", "osm_id": "1710439358", "Field_1": "Molkereistraße" }, "geometry": { "type": "Point", "coordinates": [ 16.4011235000001, 48.218199299999981 ] } },
{ "type": "Feature", "properties": { "Name": "Messe-Prater", "description": null, "altitudeMode": "clampToGround", "code": "5621", "fclass": "bus_stop", "osm_id": "1710439579", "Field_1": "Messe-Prater" }, "geometry": { "type": "Point", "coordinates": [ 16.403597199999918, 48.21817180000005 ] } },
{ "type": "Feature", "properties": { "Name": "Klimschgasse", "description": null, "altitudeMode": "clampToGround", "code": "5621", "fclass": "bus_stop", "osm_id": "1810554121", "Field_1": "Klimschgasse" }, "geometry": { "type": "Point", "coordinates": [ 16.395889, 48.192757100000051 ] } },
{ "type": "Feature", "properties": { "Name": "Gredlerstraße", "description": null, "altitudeMode": "clampToGround", "code": "5621", "fclass": "bus_stop", "osm_id": "1831336563", "Field_1": "Gredlerstraße" }, "geometry": { "type": "Point", "coordinates": [ 16.379357600000048, 48.213917500000093 ] } },
{ "type": "Feature", "properties": { "Name": "Brüßlgasse", "description": null, "altitudeMode": "clampToGround", "code": "5621", "fclass": "bus_stop", "osm_id": "1832915334", "Field_1": "Brüßlgasse" }, "geometry": { "type": "Point", "coordinates": [ 16.3215556, 48.208541700000133 ] } },
{ "type": "Feature", "properties": { "Name": "Westbahnhof", "description": null, "altitudeMode": "clampToGround", "code": "5621", "fclass": "bus_stop", "osm_id": "1941351811", "Field_1": "Westbahnhof" }, "geometry": { "type": "Point", "coordinates": [ 16.33866160000008, 48.196702500000022 ] } },
{ "type": "Feature", "properties": { "Name": "Nestroyplatz", "description": null, "altitudeMode": "clampToGround", "code": "5621", "fclass": "bus_stop", "osm_id": "2106524009", "Field_1": "Nestroyplatz" }, "geometry": { "type": "Point", "coordinates": [ 16.3859893, 48.215533 ] } },
{ "type": "Feature", "properties": { "Name": "Rennweg", "description": null, "altitudeMode": "clampToGround", "code": "5621", "fclass": "bus_stop", "osm_id": "2177208344", "Field_1": "Rennweg" }, "geometry": { "type": "Point", "coordinates": [ 16.38618340000011, 48.19460330000004 ] } },
{ "type": "Feature", "properties": { "Name": "Kleistgasse", "description": null, "altitudeMode": "clampToGround", "code": "5621", "fclass": "bus_stop", "osm_id": "2177208377", "Field_1": "Kleistgasse" }, "geometry": { "type": "Point", "coordinates": [ 16.390233500000019, 48.193656700000084 ] } },
{ "type": "Feature", "properties": { "Name": "Unteres Belvedere", "description": null, "altitudeMode": "clampToGround", "code": "5621", "fclass": "bus_stop", "osm_id": "2177208394", "Field_1": "Unteres Belvedere" }, "geometry": { "type": "Point", "coordinates": [ 16.380910700000129, 48.196804 ] } },
{ "type": "Feature", "properties": { "Name": "Auerspergstraße", "description": null, "altitudeMode": "clampToGround", "code": "5621", "fclass": "bus_stop", "osm_id": "2211384236", "Field_1": "Auerspergstraße" }, "geometry": { "type": "Point", "coordinates": [ 16.356212200000069, 48.207014900000097 ] } },
{ "type": "Feature", "properties": { "Name": "Volkstheater", "description": null, "altitudeMode": "clampToGround", "code": "5621", "fclass": "bus_stop", "osm_id": "2211384239", "Field_1": "Volkstheater" }, "geometry": { "type": "Point", "coordinates": [ 16.357095200000121, 48.2047743 ] } },
{ "type": "Feature", "properties": { "Name": "Landesgerichtsstraße", "description": null, "altitudeMode": "clampToGround", "code": "5621", "fclass": "bus_stop", "osm_id": "2213581868", "Field_1": "Landesgerichtsstraße" }, "geometry": { "type": "Point", "coordinates": [ 16.35699720000002, 48.2145066 ] } },
{ "type": "Feature", "properties": { "Name": "Palffygasse", "description": null, "altitudeMode": "clampToGround", "code": "5621", "fclass": "bus_stop", "osm_id": "2216471149", "Field_1": "Palffygasse" }, "geometry": { "type": "Point", "coordinates": [ 16.336634600000082, 48.2176091 ] } },
{ "type": "Feature", "properties": { "Name": "Alser Straße", "description": null, "altitudeMode": "clampToGround", "code": "5621", "fclass": "bus_stop", "osm_id": "2216471181", "Field_1": "Alser Straße" }, "geometry": { "type": "Point", "coordinates": [ 16.342044500000039, 48.2171985 ] } },
{ "type": "Feature", "properties": { "Name": "Elterleinplatz", "description": null, "altitudeMode": "clampToGround", "code": "5621", "fclass": "bus_stop", "osm_id": "2216471235", "Field_1": "Elterleinplatz" }, "geometry": { "type": "Point", "coordinates": [ 16.331889, 48.218139400000041 ] } },
{ "type": "Feature", "properties": { "Name": "Rosensteingasse", "description": null, "altitudeMode": "clampToGround", "code": "5621", "fclass": "bus_stop", "osm_id": "2216530088", "Field_1": "Rosensteingasse" }, "geometry": { "type": "Point", "coordinates": [ 16.327092599999961, 48.219173100000091 ] } },
{ "type": "Feature", "properties": { "Name": "Rosensteingasse", "description": null, "altitudeMode": "clampToGround", "code": "5621", "fclass": "bus_stop", "osm_id": "2216530089", "Field_1": "Rosensteingasse" }, "geometry": { "type": "Point", "coordinates": [ 16.327217900000051, 48.21908430000002 ] } },
{ "type": "Feature", "properties": { "Name": "Skodagasse", "description": null, "altitudeMode": "clampToGround", "code": "5621", "fclass": "bus_stop", "osm_id": "2218418408", "Field_1": "Skodagasse" }, "geometry": { "type": "Point", "coordinates": [ 16.348789600000028, 48.215204299999982 ] } },
{ "type": "Feature", "properties": { "Name": "Lange Gasse", "description": null, "altitudeMode": "clampToGround", "code": "5621", "fclass": "bus_stop", "osm_id": "2218418412", "Field_1": "Lange Gasse" }, "geometry": { "type": "Point", "coordinates": [ 16.350459900000029, 48.215011400000037 ] } },
{ "type": "Feature", "properties": { "Name": "Skodagasse", "description": null, "altitudeMode": "clampToGround", "code": "5621", "fclass": "bus_stop", "osm_id": "2218418417", "Field_1": "Skodagasse" }, "geometry": { "type": "Point", "coordinates": [ 16.3488153, 48.215173200000102 ] } },
{ "type": "Feature", "properties": { "Name": "Brünnlbadgasse", "description": null, "altitudeMode": "clampToGround", "code": "5621", "fclass": "bus_stop", "osm_id": "2218418420", "Field_1": "Brünnlbadgasse" }, "geometry": { "type": "Point", "coordinates": [ 16.34539030000013, 48.215497600000113 ] } },
{ "type": "Feature", "properties": { "Name": "Brünnlbadgasse", "description": null, "altitudeMode": "clampToGround", "code": "5621", "fclass": "bus_stop", "osm_id": "2218418427", "Field_1": "Brünnlbadgasse" }, "geometry": { "type": "Point", "coordinates": [ 16.346412100000119, 48.215411600000103 ] } },
{ "type": "Feature", "properties": { "Name": "Oberzellergasse", "description": null, "altitudeMode": "clampToGround", "code": "5621", "fclass": "bus_stop", "osm_id": "2223283832", "Field_1": "Oberzellergasse" }, "geometry": { "type": "Point", "coordinates": [ 16.395218900000032, 48.191734800000013 ] } },
{ "type": "Feature", "properties": { "Name": "Lange Gasse", "description": null, "altitudeMode": "clampToGround", "code": "5621", "fclass": "bus_stop", "osm_id": "2268547155", "Field_1": "Lange Gasse" }, "geometry": { "type": "Point", "coordinates": [ 16.3513999, 48.214966600000032 ] } },
{ "type": "Feature", "properties": { "Name": "Taborstraße, Heinestraße", "description": null, "altitudeMode": "clampToGround", "code": "5621", "fclass": "bus_stop", "osm_id": "2268606856", "Field_1": "Taborstraße, Heinestraße" }, "geometry": { "type": "Point", "coordinates": [ 16.382469699999952, 48.2225982 ] } },
{ "type": "Feature", "properties": { "Name": "Taborstraße, Heinestraße", "description": null, "altitudeMode": "clampToGround", "code": "5621", "fclass": "bus_stop", "osm_id": "2268606870", "Field_1": "Taborstraße, Heinestraße" }, "geometry": { "type": "Point", "coordinates": [ 16.382212, 48.221921899999977 ] } },
{ "type": "Feature", "properties": { "Name": "Franzensbrücke", "description": null, "altitudeMode": "clampToGround", "code": "5621", "fclass": "bus_stop", "osm_id": "2268632124", "Field_1": "Franzensbrücke" }, "geometry": { "type": "Point", "coordinates": [ 16.391525000000119, 48.213909599999972 ] } },
{ "type": "Feature", "properties": { "Name": "Zieglergasse\/Westbahnstraße", "description": null, "altitudeMode": "clampToGround", "code": "5621", "fclass": "bus_stop", "osm_id": "2287963583", "Field_1": "Zieglergasse\/Westbahnstraße" }, "geometry": { "type": "Point", "coordinates": [ 16.34525240000011, 48.201842700000043 ] } },
{ "type": "Feature", "properties": { "Name": "Kaiserstraße\/Westbahnstraße", "description": null, "altitudeMode": "clampToGround", "code": "5621", "fclass": "bus_stop", "osm_id": "2293993846", "Field_1": "Kaiserstraße\/Westbahnstraße" }, "geometry": { "type": "Point", "coordinates": [ 16.340774500000119, 48.20186440000009 ] } },
{ "type": "Feature", "properties": { "Name": "Schweglerstraße", "description": null, "altitudeMode": "clampToGround", "code": "5621", "fclass": "bus_stop", "osm_id": "2293993859", "Field_1": "Schweglerstraße" }, "geometry": { "type": "Point", "coordinates": [ 16.32898270000004, 48.1984799 ] } },
{ "type": "Feature", "properties": { "Name": "Schweglerstraße", "description": null, "altitudeMode": "clampToGround", "code": "5621", "fclass": "bus_stop", "osm_id": "2293993991", "Field_1": "Schweglerstraße" }, "geometry": { "type": "Point", "coordinates": [ 16.3287946, 48.198458800000033 ] } },
{ "type": "Feature", "properties": { "Name": "Stiftgasse", "description": null, "altitudeMode": "clampToGround", "code": "5621", "fclass": "bus_stop", "osm_id": "2296833085", "Field_1": "Stiftgasse" }, "geometry": { "type": "Point", "coordinates": [ 16.3548474, 48.202454600000067 ] } },
{ "type": "Feature", "properties": { "Name": "Siebensterngasse", "description": null, "altitudeMode": "clampToGround", "code": "5621", "fclass": "bus_stop", "osm_id": "2296833114", "Field_1": "Siebensterngasse" }, "geometry": { "type": "Point", "coordinates": [ 16.35154870000002, 48.202220300000022 ] } },
{ "type": "Feature", "properties": { "Name": "Siebensterngasse", "description": null, "altitudeMode": "clampToGround", "code": "5621", "fclass": "bus_stop", "osm_id": "2296833122", "Field_1": "Siebensterngasse" }, "geometry": { "type": "Point", "coordinates": [ 16.351373500000079, 48.202262799999971 ] } },
{ "type": "Feature", "properties": { "Name": "Stiftgasse", "description": null, "altitudeMode": "clampToGround", "code": "5621", "fclass": "bus_stop", "osm_id": "2296833143", "Field_1": "Stiftgasse" }, "geometry": { "type": "Point", "coordinates": [ 16.35428910000013, 48.202346 ] } },
{ "type": "Feature", "properties": { "Name": "Mayerhofgasse", "description": null, "altitudeMode": "clampToGround", "code": "5621", "fclass": "bus_stop", "osm_id": "2297169719", "Field_1": "Mayerhofgasse" }, "geometry": { "type": "Point", "coordinates": [ 16.366992100000122, 48.19262550000002 ] } },
{ "type": "Feature", "properties": { "Name": "Mayerhofgasse", "description": null, "altitudeMode": "clampToGround", "code": "5621", "fclass": "bus_stop", "osm_id": "2297169722", "Field_1": "Mayerhofgasse" }, "geometry": { "type": "Point", "coordinates": [ 16.366915100000138, 48.192418799999977 ] } },
{ "type": "Feature", "properties": { "Name": "Paulanergasse", "description": null, "altitudeMode": "clampToGround", "code": "5621", "fclass": "bus_stop", "osm_id": "2297169772", "Field_1": "Paulanergasse" }, "geometry": { "type": "Point", "coordinates": [ 16.367218900000012, 48.196107900000023 ] } },
{ "type": "Feature", "properties": { "Name": "Schwarzenbergplatz", "description": null, "altitudeMode": "clampToGround", "code": "5621", "fclass": "bus_stop", "osm_id": "2348360674", "Field_1": "Schwarzenbergplatz" }, "geometry": { "type": "Point", "coordinates": [ 16.374432099999979, 48.20006520000004 ] } },
{ "type": "Feature", "properties": { "Name": "Spitalgasse", "description": null, "altitudeMode": "clampToGround", "code": "5621", "fclass": "bus_stop", "osm_id": "2375097636", "Field_1": "Spitalgasse" }, "geometry": { "type": "Point", "coordinates": [ 16.353652600000029, 48.222123399999987 ] } },
{ "type": "Feature", "properties": { "Name": "Schwedenplatz", "description": null, "altitudeMode": "clampToGround", "code": "5621", "fclass": "bus_stop", "osm_id": "2376724057", "Field_1": "Schwedenplatz" }, "geometry": { "type": "Point", "coordinates": [ 16.3775516, 48.211929400000088 ] } },
{ "type": "Feature", "properties": { "Name": "Mariahilfer Straße, Geibelgasse", "description": null, "altitudeMode": "clampToGround", "code": "5621", "fclass": "bus_stop", "osm_id": "2424180684", "Field_1": "Mariahilfer Straße, Geibelgasse" }, "geometry": { "type": "Point", "coordinates": [ 16.330881899999952, 48.191526600000032 ] } },
{ "type": "Feature", "properties": { "Name": "Mariahilfer Straße, Geibelgasse", "description": null, "altitudeMode": "clampToGround", "code": "5621", "fclass": "bus_stop", "osm_id": "2424180685", "Field_1": "Mariahilfer Straße, Geibelgasse" }, "geometry": { "type": "Point", "coordinates": [ 16.330767700000141, 48.191616099999983 ] } },
{ "type": "Feature", "properties": { "Name": "Volkstheater", "description": null, "altitudeMode": "clampToGround", "code": "5621", "fclass": "bus_stop", "osm_id": "2476814530", "Field_1": "Volkstheater" }, "geometry": { "type": "Point", "coordinates": [ 16.358233399999961, 48.20487410000004 ] } },
{ "type": "Feature", "properties": { "Name": "Tiefer Graben", "description": null, "altitudeMode": "clampToGround", "code": "5621", "fclass": "bus_stop", "osm_id": "2477164339", "Field_1": "Tiefer Graben" }, "geometry": { "type": "Point", "coordinates": [ 16.369343799999971, 48.213532600000072 ] } },
{ "type": "Feature", "properties": { "Name": "Renngasse", "description": null, "altitudeMode": "clampToGround", "code": "5621", "fclass": "bus_stop", "osm_id": "2477164340", "Field_1": "Renngasse" }, "geometry": { "type": "Point", "coordinates": [ 16.367458200000101, 48.213031100000137 ] } },
{ "type": "Feature", "properties": { "Name": "Schwarzenbergplatz", "description": null, "altitudeMode": "clampToGround", "code": "5621", "fclass": "bus_stop", "osm_id": "2500192727", "Field_1": "Schwarzenbergplatz" }, "geometry": { "type": "Point", "coordinates": [ 16.373747900000069, 48.199688 ] } },
{ "type": "Feature", "properties": { "Name": "Ungargasse\/Neulinggasse", "description": null, "altitudeMode": "clampToGround", "code": "5621", "fclass": "bus_stop", "osm_id": "2507267827", "Field_1": "Ungargasse\/Neulinggasse" }, "geometry": { "type": "Point", "coordinates": [ 16.3878611, 48.199066600000037 ] } },
{ "type": "Feature", "properties": { "Name": "Bärenmühldurchgang", "description": null, "altitudeMode": "clampToGround", "code": "5621", "fclass": "bus_stop", "osm_id": "2510958476", "Field_1": "Bärenmühldurchgang" }, "geometry": { "type": "Point", "coordinates": [ 16.365862, 48.199568700000043 ] } },
{ "type": "Feature", "properties": { "Name": "Barichgasse", "description": null, "altitudeMode": "clampToGround", "code": "5621", "fclass": "bus_stop", "osm_id": "2706354081", "Field_1": "Barichgasse" }, "geometry": { "type": "Point", "coordinates": [ 16.394945199999938, 48.1981277 ] } },
{ "type": "Feature", "properties": { "Name": "Hintzerstraße", "description": null, "altitudeMode": "clampToGround", "code": "5621", "fclass": "bus_stop", "osm_id": "2706354149", "Field_1": "Hintzerstraße" }, "geometry": { "type": "Point", "coordinates": [ 16.3926247, 48.200797500000078 ] } },
{ "type": "Feature", "properties": { "Name": "Landstraße-Wien Mitte", "description": null, "altitudeMode": "clampToGround", "code": "5621", "fclass": "bus_stop", "osm_id": "2706354174", "Field_1": "Landstraße-Wien Mitte" }, "geometry": { "type": "Point", "coordinates": [ 16.384227899999932, 48.206180100000097 ] } },
{ "type": "Feature", "properties": { "Name": "Petrusgasse", "description": null, "altitudeMode": "clampToGround", "code": "5621", "fclass": "bus_stop", "osm_id": "2706354184", "Field_1": "Petrusgasse" }, "geometry": { "type": "Point", "coordinates": [ 16.39883, 48.19272130000013 ] } },
{ "type": "Feature", "properties": { "Name": "Rochusgasse", "description": null, "altitudeMode": "clampToGround", "code": "5621", "fclass": "bus_stop", "osm_id": "2706354213", "Field_1": "Rochusgasse" }, "geometry": { "type": "Point", "coordinates": [ 16.390681500000142, 48.202424900000103 ] } },
{ "type": "Feature", "properties": { "Name": "Stubentor", "description": null, "altitudeMode": "clampToGround", "code": "5621", "fclass": "bus_stop", "osm_id": "2706354244", "Field_1": "Stubentor" }, "geometry": { "type": "Point", "coordinates": [ 16.3803157000001, 48.207329099999981 ] } },
{ "type": "Feature", "properties": { "Name": "Weyrgasse", "description": null, "altitudeMode": "clampToGround", "code": "5621", "fclass": "bus_stop", "osm_id": "2706354266", "Field_1": "Weyrgasse" }, "geometry": { "type": "Point", "coordinates": [ 16.388809400000131, 48.204097 ] } },
{ "type": "Feature", "properties": { "Name": "Brückengasse", "description": null, "altitudeMode": "clampToGround", "code": "5621", "fclass": "bus_stop", "osm_id": "2824082701", "Field_1": "Brückengasse" }, "geometry": { "type": "Point", "coordinates": [ 16.347259400000041, 48.191183400000057 ] } },
{ "type": "Feature", "properties": { "Name": "Hirschengasse", "description": null, "altitudeMode": "clampToGround", "code": "5621", "fclass": "bus_stop", "osm_id": "2824082702", "Field_1": "Hirschengasse" }, "geometry": { "type": "Point", "coordinates": [ 16.349105099999971, 48.193007500000022 ] } },
{ "type": "Feature", "properties": { "Name": "Bauernfeldplatz", "description": null, "altitudeMode": "clampToGround", "code": "5621", "fclass": "bus_stop", "osm_id": "2850647802", "Field_1": "Bauernfeldplatz" }, "geometry": { "type": "Point", "coordinates": [ 16.360248800000079, 48.220655900000047 ] } },
{ "type": "Feature", "properties": { "Name": "Schwedenplatz\/Morzinplatz", "description": null, "altitudeMode": "clampToGround", "code": "5621", "fclass": "bus_stop", "osm_id": "3027119453", "Field_1": "Schwedenplatz\/Morzinplatz" }, "geometry": { "type": "Point", "coordinates": [ 16.37437030000001, 48.213071 ] } },
{ "type": "Feature", "properties": { "Name": "Apostelgasse", "description": null, "altitudeMode": "clampToGround", "code": "5621", "fclass": "bus_stop", "osm_id": "3245514625", "Field_1": "Apostelgasse" }, "geometry": { "type": "Point", "coordinates": [ 16.39826330000005, 48.20038 ] } },
{ "type": "Feature", "properties": { "Name": "Stubentor", "description": null, "altitudeMode": "clampToGround", "code": "5621", "fclass": "bus_stop", "osm_id": "3245538192", "Field_1": "Stubentor" }, "geometry": { "type": "Point", "coordinates": [ 16.380141, 48.206832400000053 ] } },
{ "type": "Feature", "properties": { "Name": "Geusaugasse", "description": null, "altitudeMode": "clampToGround", "code": "5621", "fclass": "bus_stop", "osm_id": "3334870923", "Field_1": "Geusaugasse" }, "geometry": { "type": "Point", "coordinates": [ 16.39457590000012, 48.204148400000072 ] } },
{ "type": "Feature", "properties": { "Name": "Rasumofskygasse", "description": null, "altitudeMode": "clampToGround", "code": "5621", "fclass": "bus_stop", "osm_id": "3334870925", "Field_1": "Rasumofskygasse" }, "geometry": { "type": "Point", "coordinates": [ 16.3949073, 48.205337500000041 ] } },
{ "type": "Feature", "properties": { "Name": "Baumgasse", "description": null, "altitudeMode": "clampToGround", "code": "5621", "fclass": "bus_stop", "osm_id": "3334887587", "Field_1": "Baumgasse" }, "geometry": { "type": "Point", "coordinates": [ 16.404936, 48.1931558 ] } },
{ "type": "Feature", "properties": { "Name": "Preßgasse", "description": null, "altitudeMode": "clampToGround", "code": "5621", "fclass": "bus_stop", "osm_id": "3420688827", "Field_1": "Preßgasse" }, "geometry": { "type": "Point", "coordinates": [ 16.363264500000071, 48.195202100000017 ] } },
{ "type": "Feature", "properties": { "Name": "Hainburger Straße", "description": null, "altitudeMode": "clampToGround", "code": "5621", "fclass": "bus_stop", "osm_id": "3532499982", "Field_1": "Hainburger Straße" }, "geometry": { "type": "Point", "coordinates": [ 16.397121100000049, 48.19902420000011 ] } },
{ "type": "Feature", "properties": { "Name": "Plankengasse", "description": null, "altitudeMode": "clampToGround", "code": "5621", "fclass": "bus_stop", "osm_id": "3555301003", "Field_1": "Plankengasse" }, "geometry": { "type": "Point", "coordinates": [ 16.369995900000109, 48.2064211 ] } },
{ "type": "Feature", "properties": { "Name": "Kleine Stadtgutgasse", "description": null, "altitudeMode": "clampToGround", "code": "5621", "fclass": "bus_stop", "osm_id": "3561489985", "Field_1": "Kleine Stadtgutgasse" }, "geometry": { "type": "Point", "coordinates": [ 16.389122900000132, 48.219621500000073 ] } },
{ "type": "Feature", "properties": { "Name": "Obere Augartenstraße", "description": null, "altitudeMode": "clampToGround", "code": "5621", "fclass": "bus_stop", "osm_id": "3561496093", "Field_1": "Obere Augartenstraße" }, "geometry": { "type": "Point", "coordinates": [ 16.37582430000009, 48.222524100000101 ] } },
{ "type": "Feature", "properties": { "Name": "Rueppgasse", "description": null, "altitudeMode": "clampToGround", "code": "5621", "fclass": "bus_stop", "osm_id": "3561496095", "Field_1": "Rueppgasse" }, "geometry": { "type": "Point", "coordinates": [ 16.386496200000071, 48.220527600000082 ] } },
{ "type": "Feature", "properties": { "Name": "Taborstraße", "description": null, "altitudeMode": "clampToGround", "code": "5621", "fclass": "bus_stop", "osm_id": "3561496096", "Field_1": "Taborstraße" }, "geometry": { "type": "Point", "coordinates": [ 16.3803675, 48.2192912000001 ] } },
{ "type": "Feature", "properties": { "Name": "Taborstraße", "description": null, "altitudeMode": "clampToGround", "code": "5621", "fclass": "bus_stop", "osm_id": "3561496097", "Field_1": "Taborstraße" }, "geometry": { "type": "Point", "coordinates": [ 16.3799276, 48.2195819 ] } },
{ "type": "Feature", "properties": { "Name": "Taborstraße\/Heinestraße", "description": null, "altitudeMode": "clampToGround", "code": "5621", "fclass": "bus_stop", "osm_id": "3561496098", "Field_1": "Taborstraße\/Heinestraße" }, "geometry": { "type": "Point", "coordinates": [ 16.38206730000007, 48.221637 ] } },
{ "type": "Feature", "properties": { "Name": "Taborstraße\/Heinestraße", "description": null, "altitudeMode": "clampToGround", "code": "5621", "fclass": "bus_stop", "osm_id": "3561496099", "Field_1": "Taborstraße\/Heinestraße" }, "geometry": { "type": "Point", "coordinates": [ 16.38249630000001, 48.222611700000023 ] } },
{ "type": "Feature", "properties": { "Name": "Volkertplatz", "description": null, "altitudeMode": "clampToGround", "code": "5621", "fclass": "bus_stop", "osm_id": "3561496100", "Field_1": "Volkertplatz" }, "geometry": { "type": "Point", "coordinates": [ 16.38567490000014, 48.222738 ] } },
{ "type": "Feature", "properties": { "Name": "Riemergasse", "description": null, "altitudeMode": "clampToGround", "code": "5621", "fclass": "bus_stop", "osm_id": "3568329395", "Field_1": "Riemergasse" }, "geometry": { "type": "Point", "coordinates": [ 16.377313300000029, 48.208073400000103 ] } },
{ "type": "Feature", "properties": { "Name": "Akademietheater", "description": null, "altitudeMode": "clampToGround", "code": "5621", "fclass": "bus_stop", "osm_id": "3568513793", "Field_1": "Akademietheater" }, "geometry": { "type": "Point", "coordinates": [ 16.37713250000013, 48.200009400000063 ] } },
{ "type": "Feature", "properties": { "Name": "Wittelsbachstraße\/Schüttelstraße", "description": null, "altitudeMode": "clampToGround", "code": "5621", "fclass": "bus_stop", "osm_id": "3568513798", "Field_1": "Wittelsbachstraße\/Schüttelstraße" }, "geometry": { "type": "Point", "coordinates": [ 16.39799140000008, 48.206279699999982 ] } },
{ "type": "Feature", "properties": { "Name": "Franzensbrücke", "description": null, "altitudeMode": "clampToGround", "code": "5621", "fclass": "bus_stop", "osm_id": "3568603293", "Field_1": "Franzensbrücke" }, "geometry": { "type": "Point", "coordinates": [ 16.391921100000051, 48.2135211 ] } },
{ "type": "Feature", "properties": { "Name": "Friedensgasse", "description": null, "altitudeMode": "clampToGround", "code": "5621", "fclass": "bus_stop", "osm_id": "3568603295", "Field_1": "Friedensgasse" }, "geometry": { "type": "Point", "coordinates": [ 16.402691000000122, 48.202902699999981 ] } },
{ "type": "Feature", "properties": { "Name": "Friedensgasse", "description": null, "altitudeMode": "clampToGround", "code": "5621", "fclass": "bus_stop", "osm_id": "3568603296", "Field_1": "Friedensgasse" }, "geometry": { "type": "Point", "coordinates": [ 16.402461100000099, 48.203619099999969 ] } },
{ "type": "Feature", "properties": { "Name": "Josef-Gall-Gasse", "description": null, "altitudeMode": "clampToGround", "code": "5621", "fclass": "bus_stop", "osm_id": "3568603297", "Field_1": "Josef-Gall-Gasse" }, "geometry": { "type": "Point", "coordinates": [ 16.39715330000001, 48.209114800000123 ] } },
{ "type": "Feature", "properties": { "Name": "Josef-Gall-Gasse", "description": null, "altitudeMode": "clampToGround", "code": "5621", "fclass": "bus_stop", "osm_id": "3568603298", "Field_1": "Josef-Gall-Gasse" }, "geometry": { "type": "Point", "coordinates": [ 16.397890700000119, 48.2098373 ] } },
{ "type": "Feature", "properties": { "Name": "Kurzbauergasse", "description": null, "altitudeMode": "clampToGround", "code": "5621", "fclass": "bus_stop", "osm_id": "3568603299", "Field_1": "Kurzbauergasse" }, "geometry": { "type": "Point", "coordinates": [ 16.395561900000018, 48.211481100000128 ] } },
{ "type": "Feature", "properties": { "Name": "Lukschgasse", "description": null, "altitudeMode": "clampToGround", "code": "5621", "fclass": "bus_stop", "osm_id": "3568603300", "Field_1": "Lukschgasse" }, "geometry": { "type": "Point", "coordinates": [ 16.405257099999972, 48.202387400000021 ] } },
{ "type": "Feature", "properties": { "Name": "Lukschgasse", "description": null, "altitudeMode": "clampToGround", "code": "5621", "fclass": "bus_stop", "osm_id": "3568603301", "Field_1": "Lukschgasse" }, "geometry": { "type": "Point", "coordinates": [ 16.405624700000029, 48.20284730000003 ] } },
{ "type": "Feature", "properties": { "Name": "Vivariumstraße", "description": null, "altitudeMode": "clampToGround", "code": "5621", "fclass": "bus_stop", "osm_id": "3568624799", "Field_1": "Vivariumstraße" }, "geometry": { "type": "Point", "coordinates": [ 16.393354300000109, 48.214284600000099 ] } },
{ "type": "Feature", "properties": { "Name": "Glockengasse", "description": null, "altitudeMode": "clampToGround", "code": "5621", "fclass": "bus_stop", "osm_id": "3568788008", "Field_1": "Glockengasse" }, "geometry": { "type": "Point", "coordinates": [ 16.381949600000102, 48.21778310000002 ] } },
{ "type": "Feature", "properties": { "Name": "Johannes-von-Gott-Platz", "description": null, "altitudeMode": "clampToGround", "code": "5621", "fclass": "bus_stop", "osm_id": "3568788012", "Field_1": "Johannes-von-Gott-Platz" }, "geometry": { "type": "Point", "coordinates": [ 16.382655800000069, 48.215883500000082 ] } },
{ "type": "Feature", "properties": { "Name": "Karmeliterplatz", "description": null, "altitudeMode": "clampToGround", "code": "5621", "fclass": "bus_stop", "osm_id": "3568788014", "Field_1": "Karmeliterplatz" }, "geometry": { "type": "Point", "coordinates": [ 16.379836800000081, 48.215646299999953 ] } },
{ "type": "Feature", "properties": { "Name": "Karmeliterplatz", "description": null, "altitudeMode": "clampToGround", "code": "5621", "fclass": "bus_stop", "osm_id": "3568788015", "Field_1": "Karmeliterplatz" }, "geometry": { "type": "Point", "coordinates": [ 16.380426, 48.216334500000073 ] } },
{ "type": "Feature", "properties": { "Name": "Leopoldsgasse", "description": null, "altitudeMode": "clampToGround", "code": "5621", "fclass": "bus_stop", "osm_id": "3568788019", "Field_1": "Leopoldsgasse" }, "geometry": { "type": "Point", "coordinates": [ 16.376318100000109, 48.220170500000052 ] } },
{ "type": "Feature", "properties": { "Name": "Leopoldsgasse", "description": null, "altitudeMode": "clampToGround", "code": "5621", "fclass": "bus_stop", "osm_id": "3568788020", "Field_1": "Leopoldsgasse" }, "geometry": { "type": "Point", "coordinates": [ 16.376009899999989, 48.220378099999948 ] } },
{ "type": "Feature", "properties": { "Name": "Nestroyplatz", "description": null, "altitudeMode": "clampToGround", "code": "5621", "fclass": "bus_stop", "osm_id": "3568788021", "Field_1": "Nestroyplatz" }, "geometry": { "type": "Point", "coordinates": [ 16.384102300000048, 48.214852300000018 ] } },
{ "type": "Feature", "properties": { "Name": "Nestroyplatz\/Praterstraße", "description": null, "altitudeMode": "clampToGround", "code": "5621", "fclass": "bus_stop", "osm_id": "3568788022", "Field_1": "Nestroyplatz\/Praterstraße" }, "geometry": { "type": "Point", "coordinates": [ 16.386284, 48.21641000000011 ] } },
{ "type": "Feature", "properties": { "Name": "Obere Augartenstraße", "description": null, "altitudeMode": "clampToGround", "code": "5621", "fclass": "bus_stop", "osm_id": "3568788023", "Field_1": "Obere Augartenstraße" }, "geometry": { "type": "Point", "coordinates": [ 16.374880200000121, 48.222355299999947 ] } },
{ "type": "Feature", "properties": { "Name": "Tandelmarktgasse", "description": null, "altitudeMode": "clampToGround", "code": "5621", "fclass": "bus_stop", "osm_id": "3568788025", "Field_1": "Tandelmarktgasse" }, "geometry": { "type": "Point", "coordinates": [ 16.377601600000052, 48.217070200000023 ] } },
{ "type": "Feature", "properties": { "Name": "Tandelmarktgasse", "description": null, "altitudeMode": "clampToGround", "code": "5621", "fclass": "bus_stop", "osm_id": "3568788026", "Field_1": "Tandelmarktgasse" }, "geometry": { "type": "Point", "coordinates": [ 16.377591400000089, 48.217205500000027 ] } },
{ "type": "Feature", "properties": { "Name": "Kärntner Straße", "description": null, "altitudeMode": "clampToGround", "code": "5621", "fclass": "bus_stop", "osm_id": "3569422613", "Field_1": "Kärntner Straße" }, "geometry": { "type": "Point", "coordinates": [ 16.369722900000109, 48.2037659 ] } },
{ "type": "Feature", "properties": { "Name": "Lassallestraße", "description": null, "altitudeMode": "clampToGround", "code": "5621", "fclass": "bus_stop", "osm_id": "3572541906", "Field_1": "Lassallestraße" }, "geometry": { "type": "Point", "coordinates": [ 16.402847300000079, 48.223316100000027 ] } },
{ "type": "Feature", "properties": { "Name": "Lassallestraße", "description": null, "altitudeMode": "clampToGround", "code": "5621", "fclass": "bus_stop", "osm_id": "3572541907", "Field_1": "Lassallestraße" }, "geometry": { "type": "Point", "coordinates": [ 16.402183500000039, 48.22382800000014 ] } },
{ "type": "Feature", "properties": { "Name": "Vorgartenstraße", "description": null, "altitudeMode": "clampToGround", "code": "5621", "fclass": "bus_stop", "osm_id": "3572541913", "Field_1": "Vorgartenstraße" }, "geometry": { "type": "Point", "coordinates": [ 16.4013822, 48.2244751 ] } },
{ "type": "Feature", "properties": { "Name": "Margaretenplatz", "description": null, "altitudeMode": "clampToGround", "code": "5621", "fclass": "bus_stop", "osm_id": "3572880494", "Field_1": "Margaretenplatz" }, "geometry": { "type": "Point", "coordinates": [ 16.357860800000029, 48.191025699999962 ] } },
{ "type": "Feature", "properties": { "Name": "Leopold-Moses-Gasse", "description": null, "altitudeMode": "clampToGround", "code": "5621", "fclass": "bus_stop", "osm_id": "3573081078", "Field_1": "Leopold-Moses-Gasse" }, "geometry": { "type": "Point", "coordinates": [ 16.396090900000051, 48.222968200000032 ] } },
{ "type": "Feature", "properties": { "Name": "Max-Winter-Platz", "description": null, "altitudeMode": "clampToGround", "code": "5621", "fclass": "bus_stop", "osm_id": "3573081079", "Field_1": "Max-Winter-Platz" }, "geometry": { "type": "Point", "coordinates": [ 16.400372899999979, 48.2210225 ] } },
{ "type": "Feature", "properties": { "Name": "Messe-Prater", "description": null, "altitudeMode": "clampToGround", "code": "5621", "fclass": "bus_stop", "osm_id": "3573081080", "Field_1": "Messe-Prater" }, "geometry": { "type": "Point", "coordinates": [ 16.403802, 48.2175406 ] } },
{ "type": "Feature", "properties": { "Name": "Praterstern", "description": null, "altitudeMode": "clampToGround", "code": "5621", "fclass": "bus_stop", "osm_id": "3573081082", "Field_1": "Praterstern" }, "geometry": { "type": "Point", "coordinates": [ 16.393154700000139, 48.2202711 ] } },
{ "type": "Feature", "properties": { "Name": "Eslarngasse", "description": null, "altitudeMode": "clampToGround", "code": "5621", "fclass": "bus_stop", "osm_id": "3578946335", "Field_1": "Eslarngasse" }, "geometry": { "type": "Point", "coordinates": [ 16.39555020000012, 48.1967669 ] } },
{ "type": "Feature", "properties": { "Name": "Kardinal-Nagl-Platz", "description": null, "altitudeMode": "clampToGround", "code": "5621", "fclass": "bus_stop", "osm_id": "3578946342", "Field_1": "Kardinal-Nagl-Platz" }, "geometry": { "type": "Point", "coordinates": [ 16.402001800000111, 48.1970248 ] } },
{ "type": "Feature", "properties": { "Name": "Kardinal-Nagl-Platz", "description": null, "altitudeMode": "clampToGround", "code": "5621", "fclass": "bus_stop", "osm_id": "3578946343", "Field_1": "Kardinal-Nagl-Platz" }, "geometry": { "type": "Point", "coordinates": [ 16.40143, 48.19785330000002 ] } },
{ "type": "Feature", "properties": { "Name": "Kleistgasse", "description": null, "altitudeMode": "clampToGround", "code": "5621", "fclass": "bus_stop", "osm_id": "3578946344", "Field_1": "Kleistgasse" }, "geometry": { "type": "Point", "coordinates": [ 16.390980399999989, 48.193531300000018 ] } },
{ "type": "Feature", "properties": { "Name": "Klimschgasse", "description": null, "altitudeMode": "clampToGround", "code": "5621", "fclass": "bus_stop", "osm_id": "3578946345", "Field_1": "Klimschgasse" }, "geometry": { "type": "Point", "coordinates": [ 16.395929700000071, 48.19274 ] } },
{ "type": "Feature", "properties": { "Name": "Krankenanstalt Rudolfstiftung", "description": null, "altitudeMode": "clampToGround", "code": "5621", "fclass": "bus_stop", "osm_id": "3578946347", "Field_1": "Krankenanstalt Rudolfstiftung" }, "geometry": { "type": "Point", "coordinates": [ 16.390910600000101, 48.196628400000122 ] } },
{ "type": "Feature", "properties": { "Name": "Lechnerstraße", "description": null, "altitudeMode": "clampToGround", "code": "5621", "fclass": "bus_stop", "osm_id": "3578946349", "Field_1": "Lechnerstraße" }, "geometry": { "type": "Point", "coordinates": [ 16.40487150000007, 48.19663230000009 ] } },
{ "type": "Feature", "properties": { "Name": "Oberzellergasse", "description": null, "altitudeMode": "clampToGround", "code": "5621", "fclass": "bus_stop", "osm_id": "3578946353", "Field_1": "Oberzellergasse" }, "geometry": { "type": "Point", "coordinates": [ 16.394689, 48.192109200000118 ] } },
{ "type": "Feature", "properties": { "Name": "Rabengasse", "description": null, "altitudeMode": "clampToGround", "code": "5621", "fclass": "bus_stop", "osm_id": "3578946359", "Field_1": "Rabengasse" }, "geometry": { "type": "Point", "coordinates": [ 16.397860700000141, 48.194303300000122 ] } },
{ "type": "Feature", "properties": { "Name": "Barichgasse", "description": null, "altitudeMode": "clampToGround", "code": "5621", "fclass": "bus_stop", "osm_id": "3579291083", "Field_1": "Barichgasse" }, "geometry": { "type": "Point", "coordinates": [ 16.3947889, 48.1983487 ] } },
{ "type": "Feature", "properties": { "Name": "Eslarngasse", "description": null, "altitudeMode": "clampToGround", "code": "5621", "fclass": "bus_stop", "osm_id": "3579291084", "Field_1": "Eslarngasse" }, "geometry": { "type": "Point", "coordinates": [ 16.396019900000059, 48.196502800000019 ] } },
{ "type": "Feature", "properties": { "Name": "Rabengasse", "description": null, "altitudeMode": "clampToGround", "code": "5621", "fclass": "bus_stop", "osm_id": "3579291085", "Field_1": "Rabengasse" }, "geometry": { "type": "Point", "coordinates": [ 16.3977842, 48.193867300000079 ] } },
{ "type": "Feature", "properties": { "Name": "Rabengasse", "description": null, "altitudeMode": "clampToGround", "code": "5621", "fclass": "bus_stop", "osm_id": "3579291086", "Field_1": "Rabengasse" }, "geometry": { "type": "Point", "coordinates": [ 16.397429699999979, 48.194309400000073 ] } },
{ "type": "Feature", "properties": { "Name": "Berggasse", "description": null, "altitudeMode": "clampToGround", "code": "5621", "fclass": "bus_stop", "osm_id": "3580134131", "Field_1": "Berggasse" }, "geometry": { "type": "Point", "coordinates": [ 16.3618316, 48.217920100000022 ] } },
{ "type": "Feature", "properties": { "Name": "Berggasse", "description": null, "altitudeMode": "clampToGround", "code": "5621", "fclass": "bus_stop", "osm_id": "3580134132", "Field_1": "Berggasse" }, "geometry": { "type": "Point", "coordinates": [ 16.361656700000079, 48.2181816 ] } },
{ "type": "Feature", "properties": { "Name": "Börse", "description": null, "altitudeMode": "clampToGround", "code": "5621", "fclass": "bus_stop", "osm_id": "3580134134", "Field_1": "Börse" }, "geometry": { "type": "Point", "coordinates": [ 16.3650772, 48.215664900000093 ] } },
{ "type": "Feature", "properties": { "Name": "Liechtensteinstraße\/Schottentor", "description": null, "altitudeMode": "clampToGround", "code": "5621", "fclass": "bus_stop", "osm_id": "3580134140", "Field_1": "Liechtensteinstraße\/Schottentor" }, "geometry": { "type": "Point", "coordinates": [ 16.363906200000031, 48.215779599999962 ] } },
{ "type": "Feature", "properties": { "Name": "Nußdorfer Straße\/Alserbachstraße", "description": null, "altitudeMode": "clampToGround", "code": "5621", "fclass": "bus_stop", "osm_id": "3580134141", "Field_1": "Nußdorfer Straße\/Alserbachstraße" }, "geometry": { "type": "Point", "coordinates": [ 16.35577910000012, 48.225016 ] } },
{ "type": "Feature", "properties": { "Name": "Schottentor", "description": null, "altitudeMode": "clampToGround", "code": "5621", "fclass": "bus_stop", "osm_id": "3580134143", "Field_1": "Schottentor" }, "geometry": { "type": "Point", "coordinates": [ 16.36446050000006, 48.215269200000023 ] } },
{ "type": "Feature", "properties": { "Name": "Brüßlgasse", "description": null, "altitudeMode": "clampToGround", "code": "5621", "fclass": "bus_stop", "osm_id": "3581236694", "Field_1": "Brüßlgasse" }, "geometry": { "type": "Point", "coordinates": [ 16.3215343, 48.2084805 ] } },
{ "type": "Feature", "properties": { "Name": "Brüßlgasse", "description": null, "altitudeMode": "clampToGround", "code": "5621", "fclass": "bus_stop", "osm_id": "3581236695", "Field_1": "Brüßlgasse" }, "geometry": { "type": "Point", "coordinates": [ 16.320818600000109, 48.205983600000032 ] } },
{ "type": "Feature", "properties": { "Name": "Camillo-Sitte-Gasse", "description": null, "altitudeMode": "clampToGround", "code": "5621", "fclass": "bus_stop", "osm_id": "3581236696", "Field_1": "Camillo-Sitte-Gasse" }, "geometry": { "type": "Point", "coordinates": [ 16.327123400000058, 48.205035800000132 ] } },
{ "type": "Feature", "properties": { "Name": "Kaiserstraße\/Burggasse", "description": null, "altitudeMode": "clampToGround", "code": "5621", "fclass": "bus_stop", "osm_id": "3581236702", "Field_1": "Kaiserstraße\/Burggasse" }, "geometry": { "type": "Point", "coordinates": [ 16.3403323, 48.204326600000059 ] } },
{ "type": "Feature", "properties": { "Name": "Kaiserstraße\/Neustiftgasse", "description": null, "altitudeMode": "clampToGround", "code": "5621", "fclass": "bus_stop", "osm_id": "3581236703", "Field_1": "Kaiserstraße\/Neustiftgasse" }, "geometry": { "type": "Point", "coordinates": [ 16.33935530000014, 48.206062200000133 ] } },
{ "type": "Feature", "properties": { "Name": "Kellermanngasse", "description": null, "altitudeMode": "clampToGround", "code": "5621", "fclass": "bus_stop", "osm_id": "3581236704", "Field_1": "Kellermanngasse" }, "geometry": { "type": "Point", "coordinates": [ 16.351859499999989, 48.205291400000142 ] } },
{ "type": "Feature", "properties": { "Name": "Kirchstetterngasse", "description": null, "altitudeMode": "clampToGround", "code": "5621", "fclass": "bus_stop", "osm_id": "3581236705", "Field_1": "Kirchstetterngasse" }, "geometry": { "type": "Point", "coordinates": [ 16.331804700000131, 48.20691220000009 ] } },
{ "type": "Feature", "properties": { "Name": "Panikengasse", "description": null, "altitudeMode": "clampToGround", "code": "5621", "fclass": "bus_stop", "osm_id": "3581236706", "Field_1": "Panikengasse" }, "geometry": { "type": "Point", "coordinates": [ 16.3248665, 48.207970200000091 ] } },
{ "type": "Feature", "properties": { "Name": "Moeringgasse", "description": null, "altitudeMode": "clampToGround", "code": "5621", "fclass": "bus_stop", "osm_id": "3581236707", "Field_1": "Moeringgasse" }, "geometry": { "type": "Point", "coordinates": [ 16.334114600000131, 48.204066900000043 ] } },
{ "type": "Feature", "properties": { "Name": "Neubaugasse\/Burggasse", "description": null, "altitudeMode": "clampToGround", "code": "5621", "fclass": "bus_stop", "osm_id": "3581236708", "Field_1": "Neubaugasse\/Burggasse" }, "geometry": { "type": "Point", "coordinates": [ 16.34840360000004, 48.204266600000039 ] } },
{ "type": "Feature", "properties": { "Name": "Neubaugasse\/Neustiftgasse", "description": null, "altitudeMode": "clampToGround", "code": "5621", "fclass": "bus_stop", "osm_id": "3581236709", "Field_1": "Neubaugasse\/Neustiftgasse" }, "geometry": { "type": "Point", "coordinates": [ 16.34857640000013, 48.205470900000023 ] } },
{ "type": "Feature", "properties": { "Name": "Sankt-Ulrichs-Platz", "description": null, "altitudeMode": "clampToGround", "code": "5621", "fclass": "bus_stop", "osm_id": "3581236715", "Field_1": "Sankt-Ulrichs-Platz" }, "geometry": { "type": "Point", "coordinates": [ 16.3537421, 48.204135 ] } },
{ "type": "Feature", "properties": { "Name": "Vogelweidplatz\/Stadthalle", "description": null, "altitudeMode": "clampToGround", "code": "5621", "fclass": "bus_stop", "osm_id": "3581236719", "Field_1": "Vogelweidplatz\/Stadthalle" }, "geometry": { "type": "Point", "coordinates": [ 16.33175650000004, 48.204322500000053 ] } },
{ "type": "Feature", "properties": { "Name": "Volkstheater", "description": null, "altitudeMode": "clampToGround", "code": "5621", "fclass": "bus_stop", "osm_id": "3581236720", "Field_1": "Volkstheater" }, "geometry": { "type": "Point", "coordinates": [ 16.3566773, 48.2055452 ] } },
{ "type": "Feature", "properties": { "Name": "Zieglergasse\/Burggasse", "description": null, "altitudeMode": "clampToGround", "code": "5621", "fclass": "bus_stop", "osm_id": "3581236723", "Field_1": "Zieglergasse\/Burggasse" }, "geometry": { "type": "Point", "coordinates": [ 16.345219800000049, 48.204305100000063 ] } },
{ "type": "Feature", "properties": { "Name": "Zieglergasse\/Neustiftgasse", "description": null, "altitudeMode": "clampToGround", "code": "5621", "fclass": "bus_stop", "osm_id": "3581236724", "Field_1": "Zieglergasse\/Neustiftgasse" }, "geometry": { "type": "Point", "coordinates": [ 16.345089600000112, 48.205694100000017 ] } },
{ "type": "Feature", "properties": { "Name": "Burgring", "description": null, "altitudeMode": "clampToGround", "code": "5621", "fclass": "bus_stop", "osm_id": "3583119112", "Field_1": "Burgring" }, "geometry": { "type": "Point", "coordinates": [ 16.3638772000001, 48.203558100000073 ] } },
{ "type": "Feature", "properties": { "Name": "Getreidemarkt", "description": null, "altitudeMode": "clampToGround", "code": "5621", "fclass": "bus_stop", "osm_id": "3583119114", "Field_1": "Getreidemarkt" }, "geometry": { "type": "Point", "coordinates": [ 16.36220150000003, 48.201139300000143 ] } },
{ "type": "Feature", "properties": { "Name": "Getreidemarkt", "description": null, "altitudeMode": "clampToGround", "code": "5621", "fclass": "bus_stop", "osm_id": "3583119115", "Field_1": "Getreidemarkt" }, "geometry": { "type": "Point", "coordinates": [ 16.362686399999969, 48.201619500000049 ] } },
{ "type": "Feature", "properties": { "Name": "Haus des Meeres", "description": null, "altitudeMode": "clampToGround", "code": "5621", "fclass": "bus_stop", "osm_id": "3583119118", "Field_1": "Haus des Meeres" }, "geometry": { "type": "Point", "coordinates": [ 16.353025099999972, 48.19724030000009 ] } },
{ "type": "Feature", "properties": { "Name": "Haus des Meeres", "description": null, "altitudeMode": "clampToGround", "code": "5621", "fclass": "bus_stop", "osm_id": "3583119119", "Field_1": "Haus des Meeres" }, "geometry": { "type": "Point", "coordinates": [ 16.35376720000011, 48.19757020000003 ] } },
{ "type": "Feature", "properties": { "Name": "Laimgrubengasse", "description": null, "altitudeMode": "clampToGround", "code": "5621", "fclass": "bus_stop", "osm_id": "3583119122", "Field_1": "Laimgrubengasse" }, "geometry": { "type": "Point", "coordinates": [ 16.359277500000019, 48.199242600000048 ] } },
{ "type": "Feature", "properties": { "Name": "Museumsquartier", "description": null, "altitudeMode": "clampToGround", "code": "5621", "fclass": "bus_stop", "osm_id": "3583119123", "Field_1": "Museumsquartier" }, "geometry": { "type": "Point", "coordinates": [ 16.362475899999989, 48.202761700000053 ] } },
{ "type": "Feature", "properties": { "Name": "Stiegengasse", "description": null, "altitudeMode": "clampToGround", "code": "5621", "fclass": "bus_stop", "osm_id": "3583119126", "Field_1": "Stiegengasse" }, "geometry": { "type": "Point", "coordinates": [ 16.35710180000012, 48.198485600000083 ] } },
{ "type": "Feature", "properties": { "Name": "Stiegengasse", "description": null, "altitudeMode": "clampToGround", "code": "5621", "fclass": "bus_stop", "osm_id": "3583119127", "Field_1": "Stiegengasse" }, "geometry": { "type": "Point", "coordinates": [ 16.357486199999979, 48.198609500000032 ] } },
{ "type": "Feature", "properties": { "Name": "Bärenmühldurchgang", "description": null, "altitudeMode": "clampToGround", "code": "5621", "fclass": "bus_stop", "osm_id": "3584027175", "Field_1": "Bärenmühldurchgang" }, "geometry": { "type": "Point", "coordinates": [ 16.3667226, 48.199612300000069 ] } },
{ "type": "Feature", "properties": { "Name": "Karlsplatz", "description": null, "altitudeMode": "clampToGround", "code": "5621", "fclass": "bus_stop", "osm_id": "3584027179", "Field_1": "Karlsplatz" }, "geometry": { "type": "Point", "coordinates": [ 16.3690737, 48.201555100000057 ] } },
{ "type": "Feature", "properties": { "Name": "Margaretenplatz\/Schönbrunner Straße", "description": null, "altitudeMode": "clampToGround", "code": "5621", "fclass": "bus_stop", "osm_id": "3584027180", "Field_1": "Margaretenplatz\/Schönbrunner Straße" }, "geometry": { "type": "Point", "coordinates": [ 16.3566105, 48.1922085 ] } },
{ "type": "Feature", "properties": { "Name": "Preßgasse", "description": null, "altitudeMode": "clampToGround", "code": "5621", "fclass": "bus_stop", "osm_id": "3584027181", "Field_1": "Preßgasse" }, "geometry": { "type": "Point", "coordinates": [ 16.361996300000101, 48.197229200000102 ] } },
{ "type": "Feature", "properties": { "Name": "Schleifmühlgasse", "description": null, "altitudeMode": "clampToGround", "code": "5621", "fclass": "bus_stop", "osm_id": "3584027184", "Field_1": "Schleifmühlgasse" }, "geometry": { "type": "Point", "coordinates": [ 16.365768600000141, 48.197265400000049 ] } },
{ "type": "Feature", "properties": { "Name": "Schönbrunner Straße\/Kettenbrückengasse", "description": null, "altitudeMode": "clampToGround", "code": "5621", "fclass": "bus_stop", "osm_id": "3584027185", "Field_1": "Schönbrunner Straße\/Kettenbrückengasse" }, "geometry": { "type": "Point", "coordinates": [ 16.3610548, 48.194981100000057 ] } },
{ "type": "Feature", "properties": { "Name": "Ziegelofengasse", "description": null, "altitudeMode": "clampToGround", "code": "5621", "fclass": "bus_stop", "osm_id": "3584027188", "Field_1": "Ziegelofengasse" }, "geometry": { "type": "Point", "coordinates": [ 16.36068640000008, 48.192700399999978 ] } },
{ "type": "Feature", "properties": { "Name": "Nestroyplatz", "description": null, "altitudeMode": "clampToGround", "code": "5621", "fclass": "bus_stop", "osm_id": "3598186464", "Field_1": "Nestroyplatz" }, "geometry": { "type": "Point", "coordinates": [ 16.3859151, 48.21558 ] } },
{ "type": "Feature", "properties": { "Name": "Praterstern", "description": null, "altitudeMode": "clampToGround", "code": "5621", "fclass": "bus_stop", "osm_id": "3598186468", "Field_1": "Praterstern" }, "geometry": { "type": "Point", "coordinates": [ 16.390576300000131, 48.218545100000028 ] } },
{ "type": "Feature", "properties": { "Name": "Vorgartenstraße", "description": null, "altitudeMode": "clampToGround", "code": "5621", "fclass": "bus_stop", "osm_id": "3598186483", "Field_1": "Vorgartenstraße" }, "geometry": { "type": "Point", "coordinates": [ 16.402530399999989, 48.22435280000002 ] } },
{ "type": "Feature", "properties": { "Name": "Vorgartenstraße", "description": null, "altitudeMode": "clampToGround", "code": "5621", "fclass": "bus_stop", "osm_id": "3598186484", "Field_1": "Vorgartenstraße" }, "geometry": { "type": "Point", "coordinates": [ 16.402454400000071, 48.224470100000133 ] } },
{ "type": "Feature", "properties": { "Name": "Praterstern\/Lassallestraße", "description": null, "altitudeMode": "clampToGround", "code": "5621", "fclass": "bus_stop", "osm_id": "3599700639", "Field_1": "Praterstern\/Lassallestraße" }, "geometry": { "type": "Point", "coordinates": [ 16.393959900000141, 48.219727400000117 ] } },
{ "type": "Feature", "properties": { "Name": "Gredlerstraße", "description": null, "altitudeMode": "clampToGround", "code": "5621", "fclass": "bus_stop", "osm_id": "3605070209", "Field_1": "Gredlerstraße" }, "geometry": { "type": "Point", "coordinates": [ 16.3798761, 48.213954200000103 ] } },
{ "type": "Feature", "properties": { "Name": "Obere Augartenstraße", "description": null, "altitudeMode": "clampToGround", "code": "5621", "fclass": "bus_stop", "osm_id": "3613711879", "Field_1": "Obere Augartenstraße" }, "geometry": { "type": "Point", "coordinates": [ 16.3737281, 48.22335430000004 ] } },
{ "type": "Feature", "properties": { "Name": "Schottenring", "description": null, "altitudeMode": "clampToGround", "code": "5621", "fclass": "bus_stop", "osm_id": "3613725701", "Field_1": "Schottenring" }, "geometry": { "type": "Point", "coordinates": [ 16.371600199999989, 48.217210300000033 ] } },
{ "type": "Feature", "properties": { "Name": "Schottenring\/Herminengasse", "description": null, "altitudeMode": "clampToGround", "code": "5621", "fclass": "bus_stop", "osm_id": "3613739723", "Field_1": "Schottenring\/Herminengasse" }, "geometry": { "type": "Point", "coordinates": [ 16.3732855, 48.217487500000061 ] } },
{ "type": "Feature", "properties": { "Name": "Kundmanngasse", "description": null, "altitudeMode": "clampToGround", "code": "5621", "fclass": "bus_stop", "osm_id": "3622257766", "Field_1": "Kundmanngasse" }, "geometry": { "type": "Point", "coordinates": [ 16.393879600000052, 48.202551700000072 ] } },
{ "type": "Feature", "properties": { "Name": "Urban-Loritz-Platz", "description": null, "altitudeMode": "clampToGround", "code": "5621", "fclass": "bus_stop", "osm_id": "3622336675", "Field_1": "Urban-Loritz-Platz" }, "geometry": { "type": "Point", "coordinates": [ 16.337251, 48.200951500000031 ] } },
{ "type": "Feature", "properties": { "Name": "Kettenbrückengasse", "description": null, "altitudeMode": "clampToGround", "code": "5621", "fclass": "bus_stop", "osm_id": "3625926617", "Field_1": "Kettenbrückengasse" }, "geometry": { "type": "Point", "coordinates": [ 16.358342200000099, 48.197132100000033 ] } },
{ "type": "Feature", "properties": { "Name": "Kettenbrückengasse", "description": null, "altitudeMode": "clampToGround", "code": "5621", "fclass": "bus_stop", "osm_id": "3625983100", "Field_1": "Kettenbrückengasse" }, "geometry": { "type": "Point", "coordinates": [ 16.359069, 48.196594200000114 ] } },
{ "type": "Feature", "properties": { "Name": "Resselgasse", "description": null, "altitudeMode": "clampToGround", "code": "5621", "fclass": "bus_stop", "osm_id": "3627059041", "Field_1": "Resselgasse" }, "geometry": { "type": "Point", "coordinates": [ 16.367740800000039, 48.198431900000116 ] } },
{ "type": "Feature", "properties": { "Name": "Alser Straße", "description": null, "altitudeMode": "clampToGround", "code": "5621", "fclass": "bus_stop", "osm_id": "3630096361", "Field_1": "Alser Straße" }, "geometry": { "type": "Point", "coordinates": [ 16.34228370000011, 48.216957500000092 ] } },
{ "type": "Feature", "properties": { "Name": "Alser Straße", "description": null, "altitudeMode": "clampToGround", "code": "5621", "fclass": "bus_stop", "osm_id": "3630096362", "Field_1": "Alser Straße" }, "geometry": { "type": "Point", "coordinates": [ 16.341538599999922, 48.217077200000062 ] } },
{ "type": "Feature", "properties": { "Name": "Josefstädter Straße", "description": null, "altitudeMode": "clampToGround", "code": "5621", "fclass": "bus_stop", "osm_id": "3630096367", "Field_1": "Josefstädter Straße" }, "geometry": { "type": "Point", "coordinates": [ 16.33869610000011, 48.211092 ] } },
{ "type": "Feature", "properties": { "Name": "Josefstädter Straße", "description": null, "altitudeMode": "clampToGround", "code": "5621", "fclass": "bus_stop", "osm_id": "3630096370", "Field_1": "Josefstädter Straße" }, "geometry": { "type": "Point", "coordinates": [ 16.339552900000118, 48.211257400000079 ] } },
{ "type": "Feature", "properties": { "Name": "Michelbeuern-AKH", "description": null, "altitudeMode": "clampToGround", "code": "5621", "fclass": "bus_stop", "osm_id": "3630096372", "Field_1": "Michelbeuern-AKH" }, "geometry": { "type": "Point", "coordinates": [ 16.345427800000039, 48.221733700000073 ] } },
{ "type": "Feature", "properties": { "Name": "Michelbeuern-AKH", "description": null, "altitudeMode": "clampToGround", "code": "5621", "fclass": "bus_stop", "osm_id": "3630096373", "Field_1": "Michelbeuern-AKH" }, "geometry": { "type": "Point", "coordinates": [ 16.3439547, 48.22207730000008 ] } },
{ "type": "Feature", "properties": { "Name": "Thaliastraße", "description": null, "altitudeMode": "clampToGround", "code": "5621", "fclass": "bus_stop", "osm_id": "3630096379", "Field_1": "Thaliastraße" }, "geometry": { "type": "Point", "coordinates": [ 16.3389436, 48.20868530000007 ] } },
{ "type": "Feature", "properties": { "Name": "Thaliastraße", "description": null, "altitudeMode": "clampToGround", "code": "5621", "fclass": "bus_stop", "osm_id": "3630096380", "Field_1": "Thaliastraße" }, "geometry": { "type": "Point", "coordinates": [ 16.338249799999971, 48.20875790000008 ] } },
{ "type": "Feature", "properties": { "Name": "Währinger Straße-Volksoper", "description": null, "altitudeMode": "clampToGround", "code": "5621", "fclass": "bus_stop", "osm_id": "3630096383", "Field_1": "Währinger Straße-Volksoper" }, "geometry": { "type": "Point", "coordinates": [ 16.349609, 48.224252400000069 ] } },
{ "type": "Feature", "properties": { "Name": "Währinger Straße-Volksoper", "description": null, "altitudeMode": "clampToGround", "code": "5621", "fclass": "bus_stop", "osm_id": "3630096384", "Field_1": "Währinger Straße-Volksoper" }, "geometry": { "type": "Point", "coordinates": [ 16.348985600000049, 48.224757 ] } },
{ "type": "Feature", "properties": { "Name": "Taubstummengasse", "description": null, "altitudeMode": "clampToGround", "code": "5621", "fclass": "bus_stop", "osm_id": "3632209805", "Field_1": "Taubstummengasse" }, "geometry": { "type": "Point", "coordinates": [ 16.370048199999989, 48.194550000000113 ] } },
{ "type": "Feature", "properties": { "Name": "Schwarzenbergplatz", "description": null, "altitudeMode": "clampToGround", "code": "5621", "fclass": "bus_stop", "osm_id": "3637973046", "Field_1": "Schwarzenbergplatz" }, "geometry": { "type": "Point", "coordinates": [ 16.375290599999971, 48.200219400000037 ] } },
{ "type": "Feature", "properties": { "Name": "Westbahnhof", "description": null, "altitudeMode": "clampToGround", "code": "5621", "fclass": "bus_stop", "osm_id": "3640663234", "Field_1": "Westbahnhof" }, "geometry": { "type": "Point", "coordinates": [ 16.338125599999959, 48.196886799999959 ] } },
{ "type": "Feature", "properties": { "Name": "Malzgasse", "description": null, "altitudeMode": "clampToGround", "code": "5621", "fclass": "bus_stop", "osm_id": "3730603841", "Field_1": "Malzgasse" }, "geometry": { "type": "Point", "coordinates": [ 16.377688599999939, 48.221195899999941 ] } },
{ "type": "Feature", "properties": { "Name": "Wien Karlsplatz\/Esperantopark", "description": null, "altitudeMode": "clampToGround", "code": "5621", "fclass": "bus_stop", "osm_id": "3872691571", "Field_1": "Wien Karlsplatz\/Esperantopark" }, "geometry": { "type": "Point", "coordinates": [ 16.367412300000069, 48.200550200000073 ] } },
{ "type": "Feature", "properties": { "Name": "Schottentor", "description": null, "altitudeMode": "clampToGround", "code": "5621", "fclass": "bus_stop", "osm_id": "4087167161", "Field_1": "Schottentor" }, "geometry": { "type": "Point", "coordinates": [ 16.36363490000014, 48.216048900000089 ] } },
{ "type": "Feature", "properties": { "Name": "Taubstummengasse", "description": null, "altitudeMode": "clampToGround", "code": "5621", "fclass": "bus_stop", "osm_id": "4191252662", "Field_1": "Taubstummengasse" }, "geometry": { "type": "Point", "coordinates": [ 16.3698778, 48.1946797 ] } },
{ "type": "Feature", "properties": { "Name": "Börse", "description": null, "altitudeMode": "clampToGround", "code": "5621", "fclass": "bus_stop", "osm_id": "4204923222", "Field_1": "Börse" }, "geometry": { "type": "Point", "coordinates": [ 16.366397100000089, 48.2157413 ] } },
{ "type": "Feature", "properties": { "Name": "Ring, Volkstheater", "description": null, "altitudeMode": "clampToGround", "code": "5621", "fclass": "bus_stop", "osm_id": "4204923223", "Field_1": "Ring, Volkstheater" }, "geometry": { "type": "Point", "coordinates": [ 16.359956, 48.206783600000108 ] } },
{ "type": "Feature", "properties": { "Name": "Karmeliterplatz", "description": null, "altitudeMode": "clampToGround", "code": "5621", "fclass": "bus_stop", "osm_id": "4204923226", "Field_1": "Karmeliterplatz" }, "geometry": { "type": "Point", "coordinates": [ 16.380323, 48.215572500000057 ] } },
{ "type": "Feature", "properties": { "Name": "Rathausplatz\/Burgtheater", "description": null, "altitudeMode": "clampToGround", "code": "5621", "fclass": "bus_stop", "osm_id": "4204923233", "Field_1": "Rathausplatz\/Burgtheater" }, "geometry": { "type": "Point", "coordinates": [ 16.3606428, 48.2104167 ] } },
{ "type": "Feature", "properties": { "Name": "Schottentor", "description": null, "altitudeMode": "clampToGround", "code": "5621", "fclass": "bus_stop", "osm_id": "4204923235", "Field_1": "Schottentor" }, "geometry": { "type": "Point", "coordinates": [ 16.36208420000008, 48.213779200000033 ] } },
{ "type": "Feature", "properties": { "Name": "Bauernfeldplatz", "description": null, "altitudeMode": "clampToGround", "code": "5621", "fclass": "bus_stop", "osm_id": "4212699831", "Field_1": "Bauernfeldplatz" }, "geometry": { "type": "Point", "coordinates": [ 16.360877600000091, 48.220639300000073 ] } },
{ "type": "Feature", "properties": { "Name": "Bauernfeldplatz", "description": null, "altitudeMode": "clampToGround", "code": "5621", "fclass": "bus_stop", "osm_id": "4212699832", "Field_1": "Bauernfeldplatz" }, "geometry": { "type": "Point", "coordinates": [ 16.360730499999988, 48.221144100000117 ] } },
{ "type": "Feature", "properties": { "Name": "Seegasse", "description": null, "altitudeMode": "clampToGround", "code": "5621", "fclass": "bus_stop", "osm_id": "4212699845", "Field_1": "Seegasse" }, "geometry": { "type": "Point", "coordinates": [ 16.361337000000109, 48.222860500000017 ] } },
{ "type": "Feature", "properties": { "Name": "Seegasse", "description": null, "altitudeMode": "clampToGround", "code": "5621", "fclass": "bus_stop", "osm_id": "4212699846", "Field_1": "Seegasse" }, "geometry": { "type": "Point", "coordinates": [ 16.3614258, 48.22306970000011 ] } },
{ "type": "Feature", "properties": { "Name": "Schwarzspanierstraße", "description": null, "altitudeMode": "clampToGround", "code": "5621", "fclass": "bus_stop", "osm_id": "4212717494", "Field_1": "Schwarzspanierstraße" }, "geometry": { "type": "Point", "coordinates": [ 16.359561700000089, 48.216972400000088 ] } },
{ "type": "Feature", "properties": { "Name": "Sensengasse", "description": null, "altitudeMode": "clampToGround", "code": "5621", "fclass": "bus_stop", "osm_id": "4212717495", "Field_1": "Sensengasse" }, "geometry": { "type": "Point", "coordinates": [ 16.35520780000007, 48.220884400000102 ] } },
{ "type": "Feature", "properties": { "Name": "Praterstern", "description": null, "altitudeMode": "clampToGround", "code": "5621", "fclass": "bus_stop", "osm_id": "4215575090", "Field_1": "Praterstern" }, "geometry": { "type": "Point", "coordinates": [ 16.393268599999939, 48.21838350000013 ] } },
{ "type": "Feature", "properties": { "Name": "Beingasse", "description": null, "altitudeMode": "clampToGround", "code": "5621", "fclass": "bus_stop", "osm_id": "4246128166", "Field_1": "Beingasse" }, "geometry": { "type": "Point", "coordinates": [ 16.331847100000061, 48.199292700000122 ] } },
{ "type": "Feature", "properties": { "Name": "Beingasse", "description": null, "altitudeMode": "clampToGround", "code": "5621", "fclass": "bus_stop", "osm_id": "4246128167", "Field_1": "Beingasse" }, "geometry": { "type": "Point", "coordinates": [ 16.3325825, 48.199497399999977 ] } },
{ "type": "Feature", "properties": { "Name": "Kaiserstraße\/Westbahnstraße", "description": null, "altitudeMode": "clampToGround", "code": "5621", "fclass": "bus_stop", "osm_id": "4246128176", "Field_1": "Kaiserstraße\/Westbahnstraße" }, "geometry": { "type": "Point", "coordinates": [ 16.340155700000079, 48.201824100000117 ] } },
{ "type": "Feature", "properties": { "Name": "Kaiserstraße\/Westbahnstraße", "description": null, "altitudeMode": "clampToGround", "code": "5621", "fclass": "bus_stop", "osm_id": "4246128177", "Field_1": "Kaiserstraße\/Westbahnstraße" }, "geometry": { "type": "Point", "coordinates": [ 16.34077340000005, 48.201849900000127 ] } },
{ "type": "Feature", "properties": { "Name": "Neubaugasse\/Westbahnstraße", "description": null, "altitudeMode": "clampToGround", "code": "5621", "fclass": "bus_stop", "osm_id": "4246134589", "Field_1": "Neubaugasse\/Westbahnstraße" }, "geometry": { "type": "Point", "coordinates": [ 16.34858980000001, 48.201761600000111 ] } },
{ "type": "Feature", "properties": { "Name": "Neubaugasse\/Westbahnstraße", "description": null, "altitudeMode": "clampToGround", "code": "5621", "fclass": "bus_stop", "osm_id": "4246134590", "Field_1": "Neubaugasse\/Westbahnstraße" }, "geometry": { "type": "Point", "coordinates": [ 16.34936260000001, 48.202163600000119 ] } },
{ "type": "Feature", "properties": { "Name": "Schweglerstraße", "description": null, "altitudeMode": "clampToGround", "code": "5621", "fclass": "bus_stop", "osm_id": "4246134594", "Field_1": "Schweglerstraße" }, "geometry": { "type": "Point", "coordinates": [ 16.32893510000002, 48.198482800000079 ] } },
{ "type": "Feature", "properties": { "Name": "Stiftgasse", "description": null, "altitudeMode": "clampToGround", "code": "5621", "fclass": "bus_stop", "osm_id": "4246134597", "Field_1": "Stiftgasse" }, "geometry": { "type": "Point", "coordinates": [ 16.354843200000118, 48.20244 ] } },
{ "type": "Feature", "properties": { "Name": "Zieglergasse\/Westbahnstraße", "description": null, "altitudeMode": "clampToGround", "code": "5621", "fclass": "bus_stop", "osm_id": "4246134598", "Field_1": "Zieglergasse\/Westbahnstraße" }, "geometry": { "type": "Point", "coordinates": [ 16.344488699999939, 48.201824599999952 ] } },
{ "type": "Feature", "properties": { "Name": "Welthandelsplatz", "description": null, "altitudeMode": "clampToGround", "code": "5621", "fclass": "bus_stop", "osm_id": "4278133771", "Field_1": "Welthandelsplatz" }, "geometry": { "type": "Point", "coordinates": [ 16.4052914, 48.215401700000143 ] } },